var data2 = { "count": 5392618,
 "photos": [
{"photo_id": 405740, "photo_title": "fudoutaki", "photo_url": "http://www.panoramio.com/photo/405740", "photo_file_url": "http://mw2.google.com/mw-panoramio/photos/medium/405740.jpg", "longitude": 139.502249, "latitude": 37.580909, "width": 500, "height": 394, "upload_date": "13 January 2007", "owner_id": 86411, "owner_name": "中村脩-Osamu nakamura", "owner_url": "http://www.panoramio.com/user/86411"}
,
{"photo_id": 12848417, "photo_title": "Niedrigwasser an der Elbe-Dresden", "photo_url": "http://www.panoramio.com/photo/12848417", "photo_file_url": "http://static2.bareka.com/photos/medium/12848417.jpg", "longitude": 13.745323, "latitude": 51.055093, "width": 500, "height": 268, "upload_date": "05 August 2008", "owner_id": 1465912, "owner_name": "funtor", "owner_url": "http://www.panoramio.com/user/1465912"}
,
{"photo_id": 291091, "photo_title": "Imperia Porto Maurizio Puesta del Sol al Prino", "photo_url": "http://www.panoramio.com/photo/291091", "photo_file_url": "http://mw2.google.com/mw-panoramio/photos/medium/291091.jpg", "longitude": 8.006684, "latitude": 43.869312, "width": 500, "height": 465, "upload_date": "03 January 2007", "owner_id": 60898, "owner_name": "esseil", "owner_url": "http://www.panoramio.com/user/60898"}
,
{"photo_id": 1183261, "photo_title": "Az óperencián innen", "photo_url": "http://www.panoramio.com/photo/1183261", "photo_file_url": "http://mw2.google.com/mw-panoramio/photos/medium/1183261.jpg", "longitude": 15.823574, "latitude": 43.708462, "width": 500, "height": 312, "upload_date": "05 March 2007", "owner_id": 109117, "owner_name": "Busa Péter", "owner_url": "http://www.panoramio.com/user/109117"}
,
{"photo_id": 1637150, "photo_title": "Vista del Misti por encima de las nubes", "photo_url": "http://www.panoramio.com/photo/1637150", "photo_file_url": "http://mw2.google.com/mw-panoramio/photos/medium/1637150.jpg", "longitude": -71.414566, "latitude": -16.300040, "width": 500, "height": 333, "upload_date": "05 April 2007", "owner_id": 328178, "owner_name": "Mariví Jiménez", "owner_url": "http://www.panoramio.com/user/328178"}
,
{"photo_id": 507703, "photo_title": "Csendes vizek", "photo_url": "http://www.panoramio.com/photo/507703", "photo_file_url": "http://mw2.google.com/mw-panoramio/photos/medium/507703.jpg", "longitude": 17.568769, "latitude": 47.633586, "width": 500, "height": 349, "upload_date": "20 January 2007", "owner_id": 109117, "owner_name": "Busa Péter", "owner_url": "http://www.panoramio.com/user/109117"}
,
{"photo_id": 55100, "photo_title": "Ballesvikskardet", "photo_url": "http://www.panoramio.com/photo/55100", "photo_file_url": "http://mw2.google.com/mw-panoramio/photos/medium/55100.jpg", "longitude": 17.122707, "latitude": 69.352910, "width": 500, "height": 375, "upload_date": "30 September 2006", "owner_id": 3574, "owner_name": "blackone", "owner_url": "http://www.panoramio.com/user/3574"}
,
{"photo_id": 291648, "photo_title": "Galway Cathedral", "photo_url": "http://www.panoramio.com/photo/291648", "photo_file_url": "http://mw2.google.com/mw-panoramio/photos/medium/291648.jpg", "longitude": -9.057664, "latitude": 53.275627, "width": 500, "height": 336, "upload_date": "03 January 2007", "owner_id": 61285, "owner_name": "kamil krawczak", "owner_url": "http://www.panoramio.com/user/61285"}
,
{"photo_id": 5285701, "photo_title": "Another South Sister reflecting in Sparks Lake", "photo_url": "http://www.panoramio.com/photo/5285701", "photo_file_url": "http://mw2.google.com/mw-panoramio/photos/medium/5285701.jpg", "longitude": -121.737549, "latitude": 44.014176, "width": 500, "height": 334, "upload_date": "13 October 2007", "owner_id": 128746, "owner_name": "© Michael Hatten", "owner_url": "http://www.panoramio.com/user/128746"}
,
{"photo_id": 761958, "photo_title": "Lake Oulujärvi", "photo_url": "http://www.panoramio.com/photo/761958", "photo_file_url": "http://mw2.google.com/mw-panoramio/photos/medium/761958.jpg", "longitude": 27.339649, "latitude": 64.231986, "width": 375, "height": 500, "upload_date": "10 February 2007", "owner_id": 151444, "owner_name": "Timo Rossi", "owner_url": "http://www.panoramio.com/user/151444"}
,
{"photo_id": 3853459, "photo_title": "Its great to be a swan on Hawn Pawn!", "photo_url": "http://www.panoramio.com/photo/3853459", "photo_file_url": "http://mw2.google.com/mw-panoramio/photos/medium/3853459.jpg", "longitude": -71.154628, "latitude": 42.470625, "width": 389, "height": 500, "upload_date": "10 August 2007", "owner_id": 286174, "owner_name": "kamaly", "owner_url": "http://www.panoramio.com/user/286174"}
,
{"photo_id": 4610197, "photo_title": "Yosemite Valley with Fallen Redwood from V11", "photo_url": "http://www.panoramio.com/photo/4610197", "photo_file_url": "http://mw2.google.com/mw-panoramio/photos/medium/4610197.jpg", "longitude": -119.661703, "latitude": 37.717214, "width": 500, "height": 281, "upload_date": "12 September 2007", "owner_id": 339677, "owner_name": "Chip Stephan", "owner_url": "http://www.panoramio.com/user/339677"}
,
{"photo_id": 5700759, "photo_title": "Crete senesi", "photo_url": "http://www.panoramio.com/photo/5700759", "photo_file_url": "http://mw2.google.com/mw-panoramio/photos/medium/5700759.jpg", "longitude": 11.448483, "latitude": 43.280205, "width": 500, "height": 304, "upload_date": "02 November 2007", "owner_id": 158718, "owner_name": "giulio colla", "owner_url": "http://www.panoramio.com/user/158718"}
,
{"photo_id": 1391775, "photo_title": "Arboles al atardecer en Chapala - Trees at sunset in Chapala Lake", "photo_url": "http://www.panoramio.com/photo/1391775", "photo_file_url": "http://mw2.google.com/mw-panoramio/photos/medium/1391775.jpg", "longitude": -102.775211, "latitude": 20.308730, "width": 500, "height": 341, "upload_date": "19 March 2007", "owner_id": 291650, "owner_name": "J.Ernesto Ortiz Razo", "owner_url": "http://www.panoramio.com/user/291650"}
,
{"photo_id": 57514, "photo_title": "Limone 1", "photo_url": "http://www.panoramio.com/photo/57514", "photo_file_url": "http://mw2.google.com/mw-panoramio/photos/medium/57514.jpg", "longitude": 10.792179, "latitude": 45.816298, "width": 500, "height": 333, "upload_date": "04 October 2006", "owner_id": 8060, "owner_name": "Norbert MAIER", "owner_url": "http://www.panoramio.com/user/8060"}
,
{"photo_id": 2602937, "photo_title": "Alone", "photo_url": "http://www.panoramio.com/photo/2602937", "photo_file_url": "http://mw2.google.com/mw-panoramio/photos/medium/2602937.jpg", "longitude": -4.001770, "latitude": 31.174035, "width": 500, "height": 320, "upload_date": "06 June 2007", "owner_id": 232099, "owner_name": "mabut", "owner_url": "http://www.panoramio.com/user/232099"}
,
{"photo_id": 117465, "photo_title": "New York in the Afternoon...from Soho.. by Jeremiah Christopher", "photo_url": "http://www.panoramio.com/photo/117465", "photo_file_url": "http://mw2.google.com/mw-panoramio/photos/medium/117465.jpg", "longitude": -74.003212, "latitude": 40.724059, "width": 500, "height": 375, "upload_date": "11 December 2006", "owner_id": 16869, "owner_name": "Jeremiah Christopher", "owner_url": "http://www.panoramio.com/user/16869"}
,
{"photo_id": 1331707, "photo_title": "Kastellet (Copenhagen fortress), Aerial", "photo_url": "http://www.panoramio.com/photo/1331707", "photo_file_url": "http://mw2.google.com/mw-panoramio/photos/medium/1331707.jpg", "longitude": 12.594967, "latitude": 55.691230, "width": 500, "height": 332, "upload_date": "15 March 2007", "owner_id": 278074, "owner_name": "H. C. Steensen", "owner_url": "http://www.panoramio.com/user/278074"}
,
{"photo_id": 11853382, "photo_title": "Railroads by Sunset/ Schienen bei Sonnenuntergang", "photo_url": "http://www.panoramio.com/photo/11853382", "photo_file_url": "http://mw2.google.com/mw-panoramio/photos/medium/11853382.jpg", "longitude": 8.283455, "latitude": 51.692644, "width": 500, "height": 332, "upload_date": "06 July 2008", "owner_id": 564436, "owner_name": "Thomas Splietker", "owner_url": "http://www.panoramio.com/user/564436"}
,
{"photo_id": 1558288, "photo_title": "Notre-Dame et Tour Saint Jacques", "photo_url": "http://www.panoramio.com/photo/1558288", "photo_file_url": "http://mw2.google.com/mw-panoramio/photos/medium/1558288.jpg", "longitude": 2.354808, "latitude": 48.850399, "width": 500, "height": 333, "upload_date": "30 March 2007", "owner_id": 78506, "owner_name": "Philippe Stoop", "owner_url": "http://www.panoramio.com/user/78506"}
,
{"photo_id": 7601425, "photo_title": "Venezianische Impressionen", "photo_url": "http://www.panoramio.com/photo/7601425", "photo_file_url": "http://mw2.google.com/mw-panoramio/photos/medium/7601425.jpg", "longitude": 12.337024, "latitude": 45.432280, "width": 500, "height": 385, "upload_date": "05 February 2008", "owner_id": 696605, "owner_name": "© alfredschaffer", "owner_url": "http://www.panoramio.com/user/696605"}
,
{"photo_id": 36386, "photo_title": "Half Dome Cables", "photo_url": "http://www.panoramio.com/photo/36386", "photo_file_url": "http://mw2.google.com/mw-panoramio/photos/medium/36386.jpg", "longitude": -119.530735, "latitude": 37.746710, "width": 333, "height": 500, "upload_date": "02 August 2006", "owner_id": 5684, "owner_name": "Brent Townshend", "owner_url": "http://www.panoramio.com/user/5684"}
,
{"photo_id": 1089570, "photo_title": "Titokzatos reggel", "photo_url": "http://www.panoramio.com/photo/1089570", "photo_file_url": "http://mw2.google.com/mw-panoramio/photos/medium/1089570.jpg", "longitude": 17.467575, "latitude": 47.870532, "width": 500, "height": 331, "upload_date": "28 February 2007", "owner_id": 109117, "owner_name": "Busa Péter", "owner_url": "http://www.panoramio.com/user/109117"}
,
{"photo_id": 575276, "photo_title": "Sunrise", "photo_url": "http://www.panoramio.com/photo/575276", "photo_file_url": "http://mw2.google.com/mw-panoramio/photos/medium/575276.jpg", "longitude": 2.288809, "latitude": 48.861892, "width": 500, "height": 349, "upload_date": "26 January 2007", "owner_id": 123518, "owner_name": "ERic Pouhier ericpouhier.com", "owner_url": "http://www.panoramio.com/user/123518"}
,
{"photo_id": 486480, "photo_title": "Monte Generoso", "photo_url": "http://www.panoramio.com/photo/486480", "photo_file_url": "http://mw2.google.com/mw-panoramio/photos/medium/486480.jpg", "longitude": 9.015055, "latitude": 45.924826, "width": 428, "height": 500, "upload_date": "19 January 2007", "owner_id": 24068, "owner_name": "Daniele Nasi", "owner_url": "http://www.panoramio.com/user/24068"}
,
{"photo_id": 1100378, "photo_title": "Rensbekksetra (summer pasture)", "photo_url": "http://www.panoramio.com/photo/1100378", "photo_file_url": "http://mw2.google.com/mw-panoramio/photos/medium/1100378.jpg", "longitude": 9.293404, "latitude": 62.712731, "width": 500, "height": 255, "upload_date": "01 March 2007", "owner_id": 223406, "owner_name": "Sigmund Rise", "owner_url": "http://www.panoramio.com/user/223406"}
,
{"photo_id": 5844316, "photo_title": "Hikarigaoka IMA", "photo_url": "http://www.panoramio.com/photo/5844316", "photo_file_url": "http://mw2.google.com/mw-panoramio/photos/medium/5844316.jpg", "longitude": 139.630048, "latitude": 35.758154, "width": 500, "height": 326, "upload_date": "11 November 2007", "owner_id": 558055, "owner_name": "www.tokyoform.com", "owner_url": "http://www.panoramio.com/user/558055"}
,
{"photo_id": 1345372, "photo_title": "Sunset, Foeniculum vulgare (fennel, is one likely candidate)", "photo_url": "http://www.panoramio.com/photo/1345372", "photo_file_url": "http://mw2.google.com/mw-panoramio/photos/medium/1345372.jpg", "longitude": 10.727119, "latitude": 55.205080, "width": 332, "height": 500, "upload_date": "16 March 2007", "owner_id": 278074, "owner_name": "H. C. Steensen", "owner_url": "http://www.panoramio.com/user/278074"}
,
{"photo_id": 1317735, "photo_title": "Motu of Bora Bora", "photo_url": "http://www.panoramio.com/photo/1317735", "photo_file_url": "http://mw2.google.com/mw-panoramio/photos/medium/1317735.jpg", "longitude": -151.698360, "latitude": -16.495843, "width": 500, "height": 355, "upload_date": "14 March 2007", "owner_id": 232099, "owner_name": "mabut", "owner_url": "http://www.panoramio.com/user/232099"}
,
{"photo_id": 1012093, "photo_title": "Sunrise from the east side of Longs Peak", "photo_url": "http://www.panoramio.com/photo/1012093", "photo_file_url": "http://mw2.google.com/mw-panoramio/photos/medium/1012093.jpg", "longitude": -105.542564, "latitude": 40.274549, "width": 374, "height": 500, "upload_date": "25 February 2007", "owner_id": 87752, "owner_name": "Richard Ryer", "owner_url": "http://www.panoramio.com/user/87752"}
,
{"photo_id": 5035419, "photo_title": "Basilica de San Basilio (Moscow)", "photo_url": "http://www.panoramio.com/photo/5035419", "photo_file_url": "http://mw2.google.com/mw-panoramio/photos/medium/5035419.jpg", "longitude": 37.622852, "latitude": 55.752622, "width": 398, "height": 500, "upload_date": "01 October 2007", "owner_id": 83865, "owner_name": "Epi F.Villanueva", "owner_url": "http://www.panoramio.com/user/83865"}
,
{"photo_id": 799910, "photo_title": "A Dramatic Turn of the Yangtze River", "photo_url": "http://www.panoramio.com/photo/799910", "photo_file_url": "http://mw2.google.com/mw-panoramio/photos/medium/799910.jpg", "longitude": 99.272633, "latitude": 28.255552, "width": 500, "height": 226, "upload_date": "13 February 2007", "owner_id": 164125, "owner_name": "DannyXu", "owner_url": "http://www.panoramio.com/user/164125"}
,
{"photo_id": 765388, "photo_title": "Leh", "photo_url": "http://www.panoramio.com/photo/765388", "photo_file_url": "http://mw2.google.com/mw-panoramio/photos/medium/765388.jpg", "longitude": 77.587509, "latitude": 34.164943, "width": 500, "height": 333, "upload_date": "10 February 2007", "owner_id": 78506, "owner_name": "Philippe Stoop", "owner_url": "http://www.panoramio.com/user/78506"}
,
{"photo_id": 2875857, "photo_title": "Elgol, Isle of Skye", "photo_url": "http://www.panoramio.com/photo/2875857", "photo_file_url": "http://mw2.google.com/mw-panoramio/photos/medium/2875857.jpg", "longitude": -6.107025, "latitude": 57.150023, "width": 500, "height": 500, "upload_date": "22 June 2007", "owner_id": 588149, "owner_name": "Adam Salwanowicz", "owner_url": "http://www.panoramio.com/user/588149"}
,
{"photo_id": 840915, "photo_title": "Island of The Day Before", "photo_url": "http://www.panoramio.com/photo/840915", "photo_file_url": "http://mw2.google.com/mw-panoramio/photos/medium/840915.jpg", "longitude": 27.436638, "latitude": 42.441448, "width": 500, "height": 333, "upload_date": "16 February 2007", "owner_id": 16880, "owner_name": "evgenidinev.com", "owner_url": "http://www.panoramio.com/user/16880"}
,
{"photo_id": 1459925, "photo_title": "The last ray", "photo_url": "http://www.panoramio.com/photo/1459925", "photo_file_url": "http://mw2.google.com/mw-panoramio/photos/medium/1459925.jpg", "longitude": -110.134850, "latitude": 36.955379, "width": 500, "height": 290, "upload_date": "23 March 2007", "owner_id": 232099, "owner_name": "mabut", "owner_url": "http://www.panoramio.com/user/232099"}
,
{"photo_id": 872177, "photo_title": "Sahara Desert sunrise, Chott el Jerid, near Kebili, Tunisia, 1/2007", "photo_url": "http://www.panoramio.com/photo/872177", "photo_file_url": "http://mw2.google.com/mw-panoramio/photos/medium/872177.jpg", "longitude": 8.475866, "latitude": 33.930898, "width": 500, "height": 375, "upload_date": "18 February 2007", "owner_id": 183521, "owner_name": "SteveT", "owner_url": "http://www.panoramio.com/user/183521"}
,
{"photo_id": 405753, "photo_title": "sinanogawa", "photo_url": "http://www.panoramio.com/photo/405753", "photo_file_url": "http://mw2.google.com/mw-panoramio/photos/medium/405753.jpg", "longitude": 138.822384, "latitude": 37.268589, "width": 500, "height": 386, "upload_date": "13 January 2007", "owner_id": 86411, "owner_name": "中村脩-Osamu nakamura", "owner_url": "http://www.panoramio.com/user/86411"}
,
{"photo_id": 548240, "photo_title": "Old Bagan 2002", "photo_url": "http://www.panoramio.com/photo/548240", "photo_file_url": "http://mw2.google.com/mw-panoramio/photos/medium/548240.jpg", "longitude": 94.825230, "latitude": 21.137026, "width": 500, "height": 375, "upload_date": "23 January 2007", "owner_id": 64758, "owner_name": "Joly David", "owner_url": "http://www.panoramio.com/user/64758"}
,
{"photo_id": 4868105, "photo_title": "Bled lake", "photo_url": "http://www.panoramio.com/photo/4868105", "photo_file_url": "http://mw2.google.com/mw-panoramio/photos/medium/4868105.jpg", "longitude": 14.104900, "latitude": 46.369793, "width": 500, "height": 333, "upload_date": "24 September 2007", "owner_id": 989, "owner_name": "Mrgud", "owner_url": "http://www.panoramio.com/user/989"}
,
{"photo_id": 549396, "photo_title": "Råkneset on Storfjellet island, Røst", "photo_url": "http://www.panoramio.com/photo/549396", "photo_file_url": "http://mw2.google.com/mw-panoramio/photos/medium/549396.jpg", "longitude": 11.932955, "latitude": 67.457456, "width": 500, "height": 375, "upload_date": "23 January 2007", "owner_id": 95799, "owner_name": "Owen Morgan", "owner_url": "http://www.panoramio.com/user/95799"}
,
{"photo_id": 196121, "photo_title": "canallave", "photo_url": "http://www.panoramio.com/photo/196121", "photo_file_url": "http://mw2.google.com/mw-panoramio/photos/medium/196121.jpg", "longitude": -3.960571, "latitude": 43.452358, "width": 500, "height": 332, "upload_date": "20 December 2006", "owner_id": 38804, "owner_name": "www.oscarsanchez.net", "owner_url": "http://www.panoramio.com/user/38804"}
,
{"photo_id": 2422299, "photo_title": "Pacific Weather", "photo_url": "http://www.panoramio.com/photo/2422299", "photo_file_url": "http://mw2.google.com/mw-panoramio/photos/medium/2422299.jpg", "longitude": -124.097099, "latitude": 44.345704, "width": 500, "height": 333, "upload_date": "27 May 2007", "owner_id": 66847, "owner_name": "Lukas Novak", "owner_url": "http://www.panoramio.com/user/66847"}
,
{"photo_id": 821291, "photo_title": "Храм Василия Блаженного (Москва, ноябрь 2006 года)", "photo_url": "http://www.panoramio.com/photo/821291", "photo_file_url": "http://mw2.google.com/mw-panoramio/photos/medium/821291.jpg", "longitude": 37.622954, "latitude": 55.752613, "width": 500, "height": 375, "upload_date": "14 February 2007", "owner_id": 55593, "owner_name": "pokatut.photosight.ru", "owner_url": "http://www.panoramio.com/user/55593"}
,
{"photo_id": 3545143, "photo_title": "Rainbow  (Regnbue)", "photo_url": "http://www.panoramio.com/photo/3545143", "photo_file_url": "http://mw2.google.com/mw-panoramio/photos/medium/3545143.jpg", "longitude": 8.598175, "latitude": 62.904445, "width": 500, "height": 223, "upload_date": "26 July 2007", "owner_id": 343934, "owner_name": "Asbjørn999", "owner_url": "http://www.panoramio.com/user/343934"}
,
{"photo_id": 1794618, "photo_title": "Túlélők", "photo_url": "http://www.panoramio.com/photo/1794618", "photo_file_url": "http://mw2.google.com/mw-panoramio/photos/medium/1794618.jpg", "longitude": 20.803127, "latitude": 48.014157, "width": 399, "height": 500, "upload_date": "15 April 2007", "owner_id": 346103, "owner_name": "lacitot", "owner_url": "http://www.panoramio.com/user/346103"}
,
{"photo_id": 3904091, "photo_title": "Hajnali utakon", "photo_url": "http://www.panoramio.com/photo/3904091", "photo_file_url": "http://mw2.google.com/mw-panoramio/photos/medium/3904091.jpg", "longitude": 17.512014, "latitude": 47.850319, "width": 500, "height": 334, "upload_date": "13 August 2007", "owner_id": 689769, "owner_name": "Ponty István", "owner_url": "http://www.panoramio.com/user/689769"}
,
{"photo_id": 5649508, "photo_title": "Quiet morning", "photo_url": "http://www.panoramio.com/photo/5649508", "photo_file_url": "http://mw2.google.com/mw-panoramio/photos/medium/5649508.jpg", "longitude": 12.190876, "latitude": 49.357446, "width": 500, "height": 333, "upload_date": "31 October 2007", "owner_id": 696605, "owner_name": "© alfredschaffer", "owner_url": "http://www.panoramio.com/user/696605"}
,
{"photo_id": 7938965, "photo_title": "Pattaya - Big Buddha - Big Buddha Hill", "photo_url": "http://www.panoramio.com/photo/7938965", "photo_file_url": "http://mw2.google.com/mw-panoramio/photos/medium/7938965.jpg", "longitude": 100.868343, "latitude": 12.914107, "width": 500, "height": 375, "upload_date": "19 February 2008", "owner_id": 716245, "owner_name": "—Dragon-64— ✈", "owner_url": "http://www.panoramio.com/user/716245"}
,
{"photo_id": 497056, "photo_title": "Japanese Garden maple", "photo_url": "http://www.panoramio.com/photo/497056", "photo_file_url": "http://mw2.google.com/mw-panoramio/photos/medium/497056.jpg", "longitude": -122.707999, "latitude": 45.518810, "width": 500, "height": 300, "upload_date": "20 January 2007", "owner_id": 107359, "owner_name": "Ron Cooper", "owner_url": "http://www.panoramio.com/user/107359"}
,
{"photo_id": 438699, "photo_title": "White Sand Dunes", "photo_url": "http://www.panoramio.com/photo/438699", "photo_file_url": "http://mw2.google.com/mw-panoramio/photos/medium/438699.jpg", "longitude": -106.262083, "latitude": 32.799324, "width": 371, "height": 500, "upload_date": "15 January 2007", "owner_id": 93560, "owner_name": "Alex Petrov", "owner_url": "http://www.panoramio.com/user/93560"}
,
{"photo_id": 2082221, "photo_title": "\"Bekötött szemmel\"", "photo_url": "http://www.panoramio.com/photo/2082221", "photo_file_url": "http://mw2.google.com/mw-panoramio/photos/medium/2082221.jpg", "longitude": 17.660522, "latitude": 47.604543, "width": 500, "height": 334, "upload_date": "05 May 2007", "owner_id": 109117, "owner_name": "Busa Péter", "owner_url": "http://www.panoramio.com/user/109117"}
,
{"photo_id": 5836484, "photo_title": "An Autumn's golden dawn on the Lake of Varese", "photo_url": "http://www.panoramio.com/photo/5836484", "photo_file_url": "http://mw2.google.com/mw-panoramio/photos/medium/5836484.jpg", "longitude": 8.718081, "latitude": 45.838966, "width": 500, "height": 312, "upload_date": "11 November 2007", "owner_id": 933456, "owner_name": "© Marco De Candido", "owner_url": "http://www.panoramio.com/user/933456"}
,
{"photo_id": 5204696, "photo_title": "Scotland", "photo_url": "http://www.panoramio.com/photo/5204696", "photo_file_url": "http://mw2.google.com/mw-panoramio/photos/medium/5204696.jpg", "longitude": -5.078773, "latitude": 56.558726, "width": 500, "height": 254, "upload_date": "09 October 2007", "owner_id": 588149, "owner_name": "Adam Salwanowicz", "owner_url": "http://www.panoramio.com/user/588149"}
,
{"photo_id": 1343454, "photo_title": "Вулкан Карымский", "photo_url": "http://www.panoramio.com/photo/1343454", "photo_file_url": "http://mw2.google.com/mw-panoramio/photos/medium/1343454.jpg", "longitude": 159.480286, "latitude": 54.025470, "width": 364, "height": 500, "upload_date": "16 March 2007", "owner_id": 268724, "owner_name": "Korotnev AV", "owner_url": "http://www.panoramio.com/user/268724"}
,
{"photo_id": 507424, "photo_title": "Lankák, ívek, felhőárnyak", "photo_url": "http://www.panoramio.com/photo/507424", "photo_file_url": "http://mw2.google.com/mw-panoramio/photos/medium/507424.jpg", "longitude": 17.967281, "latitude": 47.318112, "width": 500, "height": 291, "upload_date": "20 January 2007", "owner_id": 109117, "owner_name": "Busa Péter", "owner_url": "http://www.panoramio.com/user/109117"}
,
{"photo_id": 5893176, "photo_title": "07-06-11_Camino de Santiago, Castrojeriz_PIXELECTA", "photo_url": "http://www.panoramio.com/photo/5893176", "photo_file_url": "http://mw2.google.com/mw-panoramio/photos/medium/5893176.jpg", "longitude": -4.182916, "latitude": 42.285723, "width": 500, "height": 333, "upload_date": "13 November 2007", "owner_id": 163655, "owner_name": "[[[   PIXELECTA   ]]]", "owner_url": "http://www.panoramio.com/user/163655"}
,
{"photo_id": 186685, "photo_title": "People of Petra, the boy and his job", "photo_url": "http://www.panoramio.com/photo/186685", "photo_file_url": "http://mw2.google.com/mw-panoramio/photos/medium/186685.jpg", "longitude": 35.437002, "latitude": 30.322285, "width": 500, "height": 375, "upload_date": "19 December 2006", "owner_id": 24068, "owner_name": "Daniele Nasi", "owner_url": "http://www.panoramio.com/user/24068"}
,
{"photo_id": 355648, "photo_title": "puerto-rico el-yunque", "photo_url": "http://www.panoramio.com/photo/355648", "photo_file_url": "http://mw2.google.com/mw-panoramio/photos/medium/355648.jpg", "longitude": -65.788536, "latitude": 18.298795, "width": 500, "height": 334, "upload_date": "09 January 2007", "owner_id": 69671, "owner_name": "illusandpics.com", "owner_url": "http://www.panoramio.com/user/69671"}
,
{"photo_id": 46913, "photo_title": "beachy head", "photo_url": "http://www.panoramio.com/photo/46913", "photo_file_url": "http://mw2.google.com/mw-panoramio/photos/medium/46913.jpg", "longitude": 0.216272, "latitude": 50.737969, "width": 500, "height": 291, "upload_date": "11 September 2006", "owner_id": 2575, "owner_name": "mikel ortega", "owner_url": "http://www.panoramio.com/user/2575"}
,
{"photo_id": 6012999, "photo_title": "Wetterumschwung in Murano", "photo_url": "http://www.panoramio.com/photo/6012999", "photo_file_url": "http://mw2.google.com/mw-panoramio/photos/medium/6012999.jpg", "longitude": 12.357838, "latitude": 45.457557, "width": 500, "height": 336, "upload_date": "19 November 2007", "owner_id": 8060, "owner_name": "Norbert MAIER", "owner_url": "http://www.panoramio.com/user/8060"}
,
{"photo_id": 590422, "photo_title": "Gyilkos-tó (Killer Lake) - Remains of the forest, which grew here until 1837, conserved by the water", "photo_url": "http://www.panoramio.com/photo/590422", "photo_file_url": "http://mw2.google.com/mw-panoramio/photos/medium/590422.jpg", "longitude": 25.785170, "latitude": 46.792597, "width": 500, "height": 352, "upload_date": "27 January 2007", "owner_id": 57869, "owner_name": "NAGY Albert", "owner_url": "http://www.panoramio.com/user/57869"}
,
{"photo_id": 5119067, "photo_title": "Fog In The Forest", "photo_url": "http://www.panoramio.com/photo/5119067", "photo_file_url": "http://mw2.google.com/mw-panoramio/photos/medium/5119067.jpg", "longitude": 7.667191, "latitude": 49.174283, "width": 500, "height": 375, "upload_date": "05 October 2007", "owner_id": 528834, "owner_name": "©junebug", "owner_url": "http://www.panoramio.com/user/528834"}
,
{"photo_id": 4702558, "photo_title": "Sunset ( Isla de Antigua-Caribe)", "photo_url": "http://www.panoramio.com/photo/4702558", "photo_file_url": "http://mw2.google.com/mw-panoramio/photos/medium/4702558.jpg", "longitude": -61.833801, "latitude": 17.171627, "width": 500, "height": 375, "upload_date": "16 September 2007", "owner_id": 83865, "owner_name": "Epi F.Villanueva", "owner_url": "http://www.panoramio.com/user/83865"}
,
{"photo_id": 717413, "photo_title": "Singapore Skyline with Esplanade at night", "photo_url": "http://www.panoramio.com/photo/717413", "photo_file_url": "http://mw2.google.com/mw-panoramio/photos/medium/717413.jpg", "longitude": 103.856664, "latitude": 1.291589, "width": 391, "height": 500, "upload_date": "06 February 2007", "owner_id": 20398, "owner_name": "boerx", "owner_url": "http://www.panoramio.com/user/20398"}
,
{"photo_id": 6281064, "photo_title": "Latemar Carezza", "photo_url": "http://www.panoramio.com/photo/6281064", "photo_file_url": "http://mw2.google.com/mw-panoramio/photos/medium/6281064.jpg", "longitude": 11.595447, "latitude": 46.412476, "width": 500, "height": 332, "upload_date": "03 December 2007", "owner_id": 578163, "owner_name": "Margherita-Italy", "owner_url": "http://www.panoramio.com/user/578163"}
,
{"photo_id": 327016, "photo_title": "bryce canyon", "photo_url": "http://www.panoramio.com/photo/327016", "photo_file_url": "http://mw2.google.com/mw-panoramio/photos/medium/327016.jpg", "longitude": -112.210836, "latitude": 37.586146, "width": 500, "height": 375, "upload_date": "07 January 2007", "owner_id": 63705, "owner_name": "Karl Wiktorin", "owner_url": "http://www.panoramio.com/user/63705"}
,
{"photo_id": 301678, "photo_title": "Akashi Kaikyo Bridge (Pearl Bridge)", "photo_url": "http://www.panoramio.com/photo/301678", "photo_file_url": "http://mw2.google.com/mw-panoramio/photos/medium/301678.jpg", "longitude": 135.028882, "latitude": 34.623002, "width": 443, "height": 500, "upload_date": "04 January 2007", "owner_id": 30202, "owner_name": "S_Mori", "owner_url": "http://www.panoramio.com/user/30202"}
,
{"photo_id": 6055804, "photo_title": "2007 Balsa de SALBURUA_VITORIA (Alava) PIXELECTA", "photo_url": "http://www.panoramio.com/photo/6055804", "photo_file_url": "http://mw2.google.com/mw-panoramio/photos/medium/6055804.jpg", "longitude": -2.650537, "latitude": 42.859907, "width": 500, "height": 333, "upload_date": "21 November 2007", "owner_id": 163655, "owner_name": "[[[   PIXELECTA   ]]]", "owner_url": "http://www.panoramio.com/user/163655"}
,
{"photo_id": 5946759, "photo_title": "Snow Pond", "photo_url": "http://www.panoramio.com/photo/5946759", "photo_file_url": "http://mw2.google.com/mw-panoramio/photos/medium/5946759.jpg", "longitude": 10.899510, "latitude": 49.694507, "width": 500, "height": 375, "upload_date": "16 November 2007", "owner_id": 884621, "owner_name": "Florian Eichhorn", "owner_url": "http://www.panoramio.com/user/884621"}
,
{"photo_id": 231305, "photo_title": "Cathedral Rock in Sedona, AZ at Sunset", "photo_url": "http://www.panoramio.com/photo/231305", "photo_file_url": "http://mw2.google.com/mw-panoramio/photos/medium/231305.jpg", "longitude": -111.792294, "latitude": 34.818657, "width": 500, "height": 327, "upload_date": "25 December 2006", "owner_id": 45308, "owner_name": "Mike Cavaroc", "owner_url": "http://www.panoramio.com/user/45308"}
,
{"photo_id": 582047, "photo_title": "Old Vineyard with the sun trying to break through the fog: Oakley, CA", "photo_url": "http://www.panoramio.com/photo/582047", "photo_file_url": "http://mw2.google.com/mw-panoramio/photos/medium/582047.jpg", "longitude": -121.753750, "latitude": 38.001658, "width": 500, "height": 316, "upload_date": "26 January 2007", "owner_id": 99249, "owner_name": "shaunika", "owner_url": "http://www.panoramio.com/user/99249"}
,
{"photo_id": 679332, "photo_title": "forbidden city", "photo_url": "http://www.panoramio.com/photo/679332", "photo_file_url": "http://mw2.google.com/mw-panoramio/photos/medium/679332.jpg", "longitude": 116.396177, "latitude": 39.921734, "width": 500, "height": 248, "upload_date": "04 February 2007", "owner_id": 146092, "owner_name": "sid1662", "owner_url": "http://www.panoramio.com/user/146092"}
,
{"photo_id": 3904189, "photo_title": "Hajnal", "photo_url": "http://www.panoramio.com/photo/3904189", "photo_file_url": "http://mw2.google.com/mw-panoramio/photos/medium/3904189.jpg", "longitude": 17.361488, "latitude": 47.875138, "width": 500, "height": 333, "upload_date": "13 August 2007", "owner_id": 689769, "owner_name": "Ponty István", "owner_url": "http://www.panoramio.com/user/689769"}
,
{"photo_id": 11059137, "photo_title": "Sunset at Kythira Greece by Nikos Demiris", "photo_url": "http://www.panoramio.com/photo/11059137", "photo_file_url": "http://mw2.google.com/mw-panoramio/photos/medium/11059137.jpg", "longitude": 23.003998, "latitude": 36.142034, "width": 500, "height": 346, "upload_date": "09 June 2008", "owner_id": 1629713, "owner_name": "demirisn", "owner_url": "http://www.panoramio.com/user/1629713"}
,
{"photo_id": 2334150, "photo_title": "", "photo_url": "http://www.panoramio.com/photo/2334150", "photo_file_url": "http://mw2.google.com/mw-panoramio/photos/medium/2334150.jpg", "longitude": 0.491531, "latitude": 40.903993, "width": 500, "height": 373, "upload_date": "21 May 2007", "owner_id": 3022, "owner_name": "Arcadi", "owner_url": "http://www.panoramio.com/user/3022"}
,
{"photo_id": 5709301, "photo_title": "Ködvarázs II", "photo_url": "http://www.panoramio.com/photo/5709301", "photo_file_url": "http://mw2.google.com/mw-panoramio/photos/medium/5709301.jpg", "longitude": 17.998352, "latitude": 47.252903, "width": 333, "height": 500, "upload_date": "05 November 2007", "owner_id": 109117, "owner_name": "Busa Péter", "owner_url": "http://www.panoramio.com/user/109117"}
,
{"photo_id": 55029, "photo_title": "Solar Eclipce, Mt.Elbrus, Refuge of 11", "photo_url": "http://www.panoramio.com/photo/55029", "photo_file_url": "http://mw2.google.com/mw-panoramio/photos/medium/55029.jpg", "longitude": 42.451859, "latitude": 43.316186, "width": 448, "height": 500, "upload_date": "30 September 2006", "owner_id": 7707, "owner_name": "Yorix", "owner_url": "http://www.panoramio.com/user/7707"}
,
{"photo_id": 702974, "photo_title": "Hundertwasserhaus", "photo_url": "http://www.panoramio.com/photo/702974", "photo_file_url": "http://mw2.google.com/mw-panoramio/photos/medium/702974.jpg", "longitude": 16.393780, "latitude": 48.207594, "width": 375, "height": 500, "upload_date": "05 February 2007", "owner_id": 123698, "owner_name": "© Kojak", "owner_url": "http://www.panoramio.com/user/123698"}
,
{"photo_id": 8811826, "photo_title": "Der Baum im Wasser", "photo_url": "http://www.panoramio.com/photo/8811826", "photo_file_url": "http://mw2.google.com/mw-panoramio/photos/medium/8811826.jpg", "longitude": 9.293532, "latitude": 52.869078, "width": 375, "height": 500, "upload_date": "24 March 2008", "owner_id": 1431077, "owner_name": "Heiner F.", "owner_url": "http://www.panoramio.com/user/1431077"}
,
{"photo_id": 67843, "photo_title": "Torre Eiffel", "photo_url": "http://www.panoramio.com/photo/67843", "photo_file_url": "http://mw2.google.com/mw-panoramio/photos/medium/67843.jpg", "longitude": 2.294587, "latitude": 48.858468, "width": 500, "height": 375, "upload_date": "21 October 2006", "owner_id": 9163, "owner_name": "marathoniano", "owner_url": "http://www.panoramio.com/user/9163"}
,
{"photo_id": 1183509, "photo_title": "Viharpart", "photo_url": "http://www.panoramio.com/photo/1183509", "photo_file_url": "http://mw2.google.com/mw-panoramio/photos/medium/1183509.jpg", "longitude": 15.917473, "latitude": 43.590587, "width": 500, "height": 334, "upload_date": "05 March 2007", "owner_id": 109117, "owner_name": "Busa Péter", "owner_url": "http://www.panoramio.com/user/109117"}
,
{"photo_id": 449049, "photo_title": "Encantos de Santos", "photo_url": "http://www.panoramio.com/photo/449049", "photo_file_url": "http://mw2.google.com/mw-panoramio/photos/medium/449049.jpg", "longitude": -46.307716, "latitude": -23.988605, "width": 500, "height": 342, "upload_date": "16 January 2007", "owner_id": 81574, "owner_name": "Criss RB", "owner_url": "http://www.panoramio.com/user/81574"}
,
{"photo_id": 4669228, "photo_title": "Reif an der naab", "photo_url": "http://www.panoramio.com/photo/4669228", "photo_file_url": "http://mw2.google.com/mw-panoramio/photos/medium/4669228.jpg", "longitude": 12.113457, "latitude": 49.339105, "width": 500, "height": 333, "upload_date": "15 September 2007", "owner_id": 696605, "owner_name": "© alfredschaffer", "owner_url": "http://www.panoramio.com/user/696605"}
,
{"photo_id": 516653, "photo_title": "Alkonyvarázs", "photo_url": "http://www.panoramio.com/photo/516653", "photo_file_url": "http://mw2.google.com/mw-panoramio/photos/medium/516653.jpg", "longitude": 17.451611, "latitude": 47.782424, "width": 404, "height": 500, "upload_date": "21 January 2007", "owner_id": 109117, "owner_name": "Busa Péter", "owner_url": "http://www.panoramio.com/user/109117"}
,
{"photo_id": 4214320, "photo_title": "暮色", "photo_url": "http://www.panoramio.com/photo/4214320", "photo_file_url": "http://mw2.google.com/mw-panoramio/photos/medium/4214320.jpg", "longitude": 110.364532, "latitude": 25.201524, "width": 500, "height": 313, "upload_date": "26 August 2007", "owner_id": 161470, "owner_name": "John Su", "owner_url": "http://www.panoramio.com/user/161470"}
,
{"photo_id": 9419312, "photo_title": "Skeleton", "photo_url": "http://www.panoramio.com/photo/9419312", "photo_file_url": "http://mw2.google.com/mw-panoramio/photos/medium/9419312.jpg", "longitude": -147.929063, "latitude": -15.091723, "width": 500, "height": 326, "upload_date": "16 April 2008", "owner_id": 232099, "owner_name": "mabut", "owner_url": "http://www.panoramio.com/user/232099"}
,
{"photo_id": 642609, "photo_title": "Oia, Santorini, Cyclades, Hellas, Greece", "photo_url": "http://www.panoramio.com/photo/642609", "photo_file_url": "http://mw2.google.com/mw-panoramio/photos/medium/642609.jpg", "longitude": 25.377388, "latitude": 36.460778, "width": 500, "height": 333, "upload_date": "01 February 2007", "owner_id": 131038, "owner_name": "wolffystyle", "owner_url": "http://www.panoramio.com/user/131038"}
,
{"photo_id": 354614, "photo_title": "Dresden_Centrum_01", "photo_url": "http://www.panoramio.com/photo/354614", "photo_file_url": "http://mw2.google.com/mw-panoramio/photos/medium/354614.jpg", "longitude": 13.740206, "latitude": 51.056934, "width": 500, "height": 332, "upload_date": "09 January 2007", "owner_id": 71628, "owner_name": "Ulrich Hässler, Dresden", "owner_url": "http://www.panoramio.com/user/71628"}
,
{"photo_id": 678200, "photo_title": "Geometria de terrazas", "photo_url": "http://www.panoramio.com/photo/678200", "photo_file_url": "http://mw2.google.com/mw-panoramio/photos/medium/678200.jpg", "longitude": -16.841269, "latitude": 28.235525, "width": 500, "height": 333, "upload_date": "03 February 2007", "owner_id": 92750, "owner_name": "Pablo López Ramos", "owner_url": "http://www.panoramio.com/user/92750"}
,
{"photo_id": 436284, "photo_title": "bandaibasi2", "photo_url": "http://www.panoramio.com/photo/436284", "photo_file_url": "http://mw2.google.com/mw-panoramio/photos/medium/436284.jpg", "longitude": 139.051423, "latitude": 37.920063, "width": 500, "height": 393, "upload_date": "15 January 2007", "owner_id": 86411, "owner_name": "中村脩-Osamu nakamura", "owner_url": "http://www.panoramio.com/user/86411"}
,
{"photo_id": 2235454, "photo_title": "La bonde et la brume", "photo_url": "http://www.panoramio.com/photo/2235454", "photo_file_url": "http://mw2.google.com/mw-panoramio/photos/medium/2235454.jpg", "longitude": 1.595249, "latitude": 47.313181, "width": 500, "height": 500, "upload_date": "15 May 2007", "owner_id": 372189, "owner_name": "Phil©", "owner_url": "http://www.panoramio.com/user/372189"}
,
{"photo_id": 5983, "photo_title": "Waiting", "photo_url": "http://www.panoramio.com/photo/5983", "photo_file_url": "http://mw2.google.com/mw-panoramio/photos/medium/5983.jpg", "longitude": 7.796173, "latitude": 33.954752, "width": 344, "height": 500, "upload_date": "17 December 2005", "owner_id": 989, "owner_name": "Mrgud", "owner_url": "http://www.panoramio.com/user/989"}
,
{"photo_id": 97402, "photo_title": "Mostar", "photo_url": "http://www.panoramio.com/photo/97402", "photo_file_url": "http://mw2.google.com/mw-panoramio/photos/medium/97402.jpg", "longitude": 17.814803, "latitude": 43.337102, "width": 500, "height": 375, "upload_date": "09 December 2006", "owner_id": 12954, "owner_name": "Ziębol", "owner_url": "http://www.panoramio.com/user/12954"}
,
{"photo_id": 5159548, "photo_title": "Autumn - Herbstfarben - Fall", "photo_url": "http://www.panoramio.com/photo/5159548", "photo_file_url": "http://mw2.google.com/mw-panoramio/photos/medium/5159548.jpg", "longitude": 7.541599, "latitude": 46.834772, "width": 500, "height": 374, "upload_date": "08 October 2007", "owner_id": 635422, "owner_name": "♫ Swissmay", "owner_url": "http://www.panoramio.com/user/635422"}
,
{"photo_id": 1779072, "photo_title": "Égi érintés", "photo_url": "http://www.panoramio.com/photo/1779072", "photo_file_url": "http://mw2.google.com/mw-panoramio/photos/medium/1779072.jpg", "longitude": 17.747383, "latitude": 47.556835, "width": 462, "height": 500, "upload_date": "14 April 2007", "owner_id": 109117, "owner_name": "Busa Péter", "owner_url": "http://www.panoramio.com/user/109117"}
,
{"photo_id": 5795973, "photo_title": "Emmental mit 7 Hengsten Hohgant und Berneralpen - Emmental, 7 Stallions and Bernese Alpine Snow Mountains", "photo_url": "http://www.panoramio.com/photo/5795973", "photo_file_url": "http://mw2.google.com/mw-panoramio/photos/medium/5795973.jpg", "longitude": 7.730427, "latitude": 47.033280, "width": 500, "height": 374, "upload_date": "08 November 2007", "owner_id": 635422, "owner_name": "♫ Swissmay", "owner_url": "http://www.panoramio.com/user/635422"}
,
{"photo_id": 6850694, "photo_title": "2007-VITORIA Alava PIXELECTA", "photo_url": "http://www.panoramio.com/photo/6850694", "photo_file_url": "http://mw2.google.com/mw-panoramio/photos/medium/6850694.jpg", "longitude": -2.649336, "latitude": 42.861260, "width": 500, "height": 116, "upload_date": "02 January 2008", "owner_id": 163655, "owner_name": "[[[   PIXELECTA   ]]]", "owner_url": "http://www.panoramio.com/user/163655"}
,
{"photo_id": 11738506, "photo_title": "Galeria de Itálica", "photo_url": "http://www.panoramio.com/photo/11738506", "photo_file_url": "http://mw2.google.com/mw-panoramio/photos/medium/11738506.jpg", "longitude": -6.046858, "latitude": 37.444199, "width": 378, "height": 500, "upload_date": "03 July 2008", "owner_id": 1038666, "owner_name": "Doenjo", "owner_url": "http://www.panoramio.com/user/1038666"}
,
{"photo_id": 4013965, "photo_title": "Pedaleando en la costanera", "photo_url": "http://www.panoramio.com/photo/4013965", "photo_file_url": "http://mw2.google.com/mw-panoramio/photos/medium/4013965.jpg", "longitude": -73.231012, "latitude": -39.817655, "width": 500, "height": 366, "upload_date": "18 August 2007", "owner_id": 327310, "owner_name": "Erwin Woenckhaus", "owner_url": "http://www.panoramio.com/user/327310"}
,
{"photo_id": 611985, "photo_title": "Toda Temple", "photo_url": "http://www.panoramio.com/photo/611985", "photo_file_url": "http://mw2.google.com/mw-panoramio/photos/medium/611985.jpg", "longitude": 76.715459, "latitude": 11.420014, "width": 500, "height": 375, "upload_date": "29 January 2007", "owner_id": 130990, "owner_name": "Eye for India. blogspot .com", "owner_url": "http://www.panoramio.com/user/130990"}
,
{"photo_id": 2689441, "photo_title": "Terepszemle", "photo_url": "http://www.panoramio.com/photo/2689441", "photo_file_url": "http://mw2.google.com/mw-panoramio/photos/medium/2689441.jpg", "longitude": 17.674255, "latitude": 47.601533, "width": 500, "height": 347, "upload_date": "11 June 2007", "owner_id": 109117, "owner_name": "Busa Péter", "owner_url": "http://www.panoramio.com/user/109117"}
,
{"photo_id": 6599853, "photo_title": "FlowerSun", "photo_url": "http://www.panoramio.com/photo/6599853", "photo_file_url": "http://mw2.google.com/mw-panoramio/photos/medium/6599853.jpg", "longitude": 21.042938, "latitude": 41.988333, "width": 480, "height": 500, "upload_date": "21 December 2007", "owner_id": 695042, "owner_name": "Neim Sejfuli ♦", "owner_url": "http://www.panoramio.com/user/695042"}
,
{"photo_id": 71855, "photo_title": "British Museum", "photo_url": "http://www.panoramio.com/photo/71855", "photo_file_url": "http://mw2.google.com/mw-panoramio/photos/medium/71855.jpg", "longitude": -0.127373, "latitude": 51.519265, "width": 500, "height": 333, "upload_date": "28 October 2006", "owner_id": 1295, "owner_name": "Matthew Walters", "owner_url": "http://www.panoramio.com/user/1295"}
,
{"photo_id": 58291, "photo_title": "Gollinger Wasserfall", "photo_url": "http://www.panoramio.com/photo/58291", "photo_file_url": "http://mw2.google.com/mw-panoramio/photos/medium/58291.jpg", "longitude": 13.138103, "latitude": 47.601244, "width": 330, "height": 500, "upload_date": "07 October 2006", "owner_id": 8060, "owner_name": "Norbert MAIER", "owner_url": "http://www.panoramio.com/user/8060"}
,
{"photo_id": 3903941, "photo_title": "Viharos Pipacsos", "photo_url": "http://www.panoramio.com/photo/3903941", "photo_file_url": "http://mw2.google.com/mw-panoramio/photos/medium/3903941.jpg", "longitude": 16.638451, "latitude": 47.732396, "width": 500, "height": 331, "upload_date": "13 August 2007", "owner_id": 689769, "owner_name": "Ponty István", "owner_url": "http://www.panoramio.com/user/689769"}
,
{"photo_id": 5363928, "photo_title": "Antelope Slot Canyon", "photo_url": "http://www.panoramio.com/photo/5363928", "photo_file_url": "http://mw2.google.com/mw-panoramio/photos/medium/5363928.jpg", "longitude": -111.370811, "latitude": 36.856755, "width": 500, "height": 326, "upload_date": "17 October 2007", "owner_id": 358485, "owner_name": "Francesco Villa", "owner_url": "http://www.panoramio.com/user/358485"}
,
{"photo_id": 2688750, "photo_title": "Playa de Strenc,Mallorca", "photo_url": "http://www.panoramio.com/photo/2688750", "photo_file_url": "http://mw2.google.com/mw-panoramio/photos/medium/2688750.jpg", "longitude": 2.980042, "latitude": 39.348702, "width": 500, "height": 427, "upload_date": "11 June 2007", "owner_id": 83865, "owner_name": "Epi F.Villanueva", "owner_url": "http://www.panoramio.com/user/83865"}
,
{"photo_id": 3148025, "photo_title": "Zuidlede", "photo_url": "http://www.panoramio.com/photo/3148025", "photo_file_url": "http://mw2.google.com/mw-panoramio/photos/medium/3148025.jpg", "longitude": 3.906112, "latitude": 51.147667, "width": 496, "height": 500, "upload_date": "06 July 2007", "owner_id": 635244, "owner_name": "A.Lebacq", "owner_url": "http://www.panoramio.com/user/635244"}
,
{"photo_id": 809727, "photo_title": "Túl az óperencián", "photo_url": "http://www.panoramio.com/photo/809727", "photo_file_url": "http://mw2.google.com/mw-panoramio/photos/medium/809727.jpg", "longitude": 17.062283, "latitude": 43.277580, "width": 500, "height": 334, "upload_date": "13 February 2007", "owner_id": 109117, "owner_name": "Busa Péter", "owner_url": "http://www.panoramio.com/user/109117"}
,
{"photo_id": 11560716, "photo_title": "China's Great Wall, 09 may 2008", "photo_url": "http://www.panoramio.com/photo/11560716", "photo_file_url": "http://mw2.google.com/mw-panoramio/photos/medium/11560716.jpg", "longitude": 116.064860, "latitude": 40.287162, "width": 500, "height": 331, "upload_date": "27 June 2008", "owner_id": 1931067, "owner_name": "EugeneTrambo", "owner_url": "http://www.panoramio.com/user/1931067"}
,
{"photo_id": 10484028, "photo_title": "Tuscanny in lower bavaria?  Toskana in Niederbayern? near Pfeffenhausen", "photo_url": "http://www.panoramio.com/photo/10484028", "photo_file_url": "http://mw2.google.com/mw-panoramio/photos/medium/10484028.jpg", "longitude": 11.982479, "latitude": 48.628768, "width": 500, "height": 411, "upload_date": "22 May 2008", "owner_id": 1077251, "owner_name": "picsonthemove", "owner_url": "http://www.panoramio.com/user/1077251"}
,
{"photo_id": 10321724, "photo_title": "Kingston Lacy beech avenue from the middle of the road (don't try this at home...)", "photo_url": "http://www.panoramio.com/photo/10321724", "photo_file_url": "http://mw2.google.com/mw-panoramio/photos/medium/10321724.jpg", "longitude": -2.051697, "latitude": 50.820469, "width": 500, "height": 473, "upload_date": "17 May 2008", "owner_id": 450216, "owner_name": "Graham Hobbs", "owner_url": "http://www.panoramio.com/user/450216"}
,
{"photo_id": 11847917, "photo_title": "Neda.... The end of an unusual trip! First Prize \"Travel\" Panoramio JULY 2008, a shot by kostas andreopoulos", "photo_url": "http://www.panoramio.com/photo/11847917", "photo_file_url": "http://mw2.google.com/mw-panoramio/photos/medium/11847917.jpg", "longitude": 21.776275, "latitude": 37.394711, "width": 500, "height": 484, "upload_date": "06 July 2008", "owner_id": 1690483, "owner_name": "k.andre", "owner_url": "http://www.panoramio.com/user/1690483"}
,
{"photo_id": 723285, "photo_title": "Stonehenge Fisheye View June 2000", "photo_url": "http://www.panoramio.com/photo/723285", "photo_file_url": "http://mw2.google.com/mw-panoramio/photos/medium/723285.jpg", "longitude": -1.826195, "latitude": 51.178849, "width": 500, "height": 500, "upload_date": "07 February 2007", "owner_id": 154364, "owner_name": "Edgy01", "owner_url": "http://www.panoramio.com/user/154364"}
,
{"photo_id": 9831198, "photo_title": "Verőfényes hangulat", "photo_url": "http://www.panoramio.com/photo/9831198", "photo_file_url": "http://mw2.google.com/mw-panoramio/photos/medium/9831198.jpg", "longitude": 18.331053, "latitude": 47.650689, "width": 333, "height": 500, "upload_date": "01 May 2008", "owner_id": 109117, "owner_name": "Busa Péter", "owner_url": "http://www.panoramio.com/user/109117"}
,
{"photo_id": 4670496, "photo_title": "Vuelo rasante entre la niebla", "photo_url": "http://www.panoramio.com/photo/4670496", "photo_file_url": "http://mw2.google.com/mw-panoramio/photos/medium/4670496.jpg", "longitude": -73.243092, "latitude": -39.809134, "width": 500, "height": 371, "upload_date": "15 September 2007", "owner_id": 327310, "owner_name": "Erwin Woenckhaus", "owner_url": "http://www.panoramio.com/user/327310"}
,
{"photo_id": 2414624, "photo_title": "Triumvirátus", "photo_url": "http://www.panoramio.com/photo/2414624", "photo_file_url": "http://mw2.google.com/mw-panoramio/photos/medium/2414624.jpg", "longitude": 17.768154, "latitude": 47.510940, "width": 500, "height": 309, "upload_date": "27 May 2007", "owner_id": 109117, "owner_name": "Busa Péter", "owner_url": "http://www.panoramio.com/user/109117"}
,
{"photo_id": 196129, "photo_title": "usgo", "photo_url": "http://www.panoramio.com/photo/196129", "photo_file_url": "http://mw2.google.com/mw-panoramio/photos/medium/196129.jpg", "longitude": -3.999882, "latitude": 43.439397, "width": 500, "height": 316, "upload_date": "20 December 2006", "owner_id": 38804, "owner_name": "www.oscarsanchez.net", "owner_url": "http://www.panoramio.com/user/38804"}
,
{"photo_id": 304677, "photo_title": "Allee bei Wilhelmsthal", "photo_url": "http://www.panoramio.com/photo/304677", "photo_file_url": "http://mw2.google.com/mw-panoramio/photos/medium/304677.jpg", "longitude": 9.409919, "latitude": 51.392686, "width": 500, "height": 409, "upload_date": "05 January 2007", "owner_id": 63703, "owner_name": "Rainer Kaufhold", "owner_url": "http://www.panoramio.com/user/63703"}
,
{"photo_id": 4924213, "photo_title": "Egy varázslatos estén", "photo_url": "http://www.panoramio.com/photo/4924213", "photo_file_url": "http://mw2.google.com/mw-panoramio/photos/medium/4924213.jpg", "longitude": 2.151239, "latitude": 41.371278, "width": 500, "height": 335, "upload_date": "26 September 2007", "owner_id": 109117, "owner_name": "Busa Péter", "owner_url": "http://www.panoramio.com/user/109117"}
,
{"photo_id": 189243, "photo_title": "coming in for a landing", "photo_url": "http://www.panoramio.com/photo/189243", "photo_file_url": "http://mw2.google.com/mw-panoramio/photos/medium/189243.jpg", "longitude": -123.147984, "latitude": 49.198812, "width": 500, "height": 333, "upload_date": "19 December 2006", "owner_id": 29932, "owner_name": "Rom@nce", "owner_url": "http://www.panoramio.com/user/29932"}
,
{"photo_id": 3121730, "photo_title": "Mers-les-Bains dark clouds looming", "photo_url": "http://www.panoramio.com/photo/3121730", "photo_file_url": "http://mw2.google.com/mw-panoramio/photos/medium/3121730.jpg", "longitude": 1.383655, "latitude": 50.066878, "width": 500, "height": 375, "upload_date": "04 July 2007", "owner_id": 633531, "owner_name": "ianwstokes", "owner_url": "http://www.panoramio.com/user/633531"}
,
{"photo_id": 5358146, "photo_title": "Lone Rock Rainbows", "photo_url": "http://www.panoramio.com/photo/5358146", "photo_file_url": "http://mw2.google.com/mw-panoramio/photos/medium/5358146.jpg", "longitude": -111.537795, "latitude": 37.020475, "width": 500, "height": 335, "upload_date": "16 October 2007", "owner_id": 66847, "owner_name": "Lukas Novak", "owner_url": "http://www.panoramio.com/user/66847"}
,
{"photo_id": 9633346, "photo_title": "Altstadt von Spello--Winner Contest of April 2008          First Prize of Travel Category", "photo_url": "http://www.panoramio.com/photo/9633346", "photo_file_url": "http://mw2.google.com/mw-panoramio/photos/medium/9633346.jpg", "longitude": 12.672386, "latitude": 42.989236, "width": 347, "height": 500, "upload_date": "23 April 2008", "owner_id": 1400529, "owner_name": "marita1004", "owner_url": "http://www.panoramio.com/user/1400529"}
,
{"photo_id": 611425, "photo_title": "The Dome of Cologne", "photo_url": "http://www.panoramio.com/photo/611425", "photo_file_url": "http://mw2.google.com/mw-panoramio/photos/medium/611425.jpg", "longitude": 6.968604, "latitude": 50.941157, "width": 500, "height": 357, "upload_date": "29 January 2007", "owner_id": 8058, "owner_name": "Ermanec", "owner_url": "http://www.panoramio.com/user/8058"}
,
{"photo_id": 6850661, "photo_title": "Në Fush të Pallaticës", "photo_url": "http://www.panoramio.com/photo/6850661", "photo_file_url": "http://mw2.google.com/mw-panoramio/photos/medium/6850661.jpg", "longitude": 21.075768, "latitude": 42.007915, "width": 488, "height": 500, "upload_date": "02 January 2008", "owner_id": 695042, "owner_name": "Neim Sejfuli ♦", "owner_url": "http://www.panoramio.com/user/695042"}
,
{"photo_id": 5617509, "photo_title": "Cölöp kiadó", "photo_url": "http://www.panoramio.com/photo/5617509", "photo_file_url": "http://mw2.google.com/mw-panoramio/photos/medium/5617509.jpg", "longitude": 12.333934, "latitude": 45.425368, "width": 500, "height": 334, "upload_date": "29 October 2007", "owner_id": 109117, "owner_name": "Busa Péter", "owner_url": "http://www.panoramio.com/user/109117"}
,
{"photo_id": 2083687, "photo_title": "Sunrise at Abu Simbel", "photo_url": "http://www.panoramio.com/photo/2083687", "photo_file_url": "http://mw2.google.com/mw-panoramio/photos/medium/2083687.jpg", "longitude": 31.630840, "latitude": 22.363729, "width": 500, "height": 335, "upload_date": "05 May 2007", "owner_id": 3316, "owner_name": "kristine hannon (www.traveltheglobe.be)", "owner_url": "http://www.panoramio.com/user/3316"}
,
{"photo_id": 7284083, "photo_title": "Japanese garden", "photo_url": "http://www.panoramio.com/photo/7284083", "photo_file_url": "http://mw2.google.com/mw-panoramio/photos/medium/7284083.jpg", "longitude": -13.673172, "latitude": 21.259301, "width": 335, "height": 500, "upload_date": "22 January 2008", "owner_id": 232099, "owner_name": "mabut", "owner_url": "http://www.panoramio.com/user/232099"}
,
{"photo_id": 5750152, "photo_title": "Earth, Moon and Sky", "photo_url": "http://www.panoramio.com/photo/5750152", "photo_file_url": "http://mw2.google.com/mw-panoramio/photos/medium/5750152.jpg", "longitude": -117.560234, "latitude": 36.678057, "width": 333, "height": 500, "upload_date": "06 November 2007", "owner_id": 376395, "owner_name": "JeffSullivan (www.MyPhotoGuides.com)", "owner_url": "http://www.panoramio.com/user/376395"}
,
{"photo_id": 5633673, "photo_title": "Ridgely Farm Lane", "photo_url": "http://www.panoramio.com/photo/5633673", "photo_file_url": "http://mw2.google.com/mw-panoramio/photos/medium/5633673.jpg", "longitude": -78.775320, "latitude": 38.031867, "width": 500, "height": 378, "upload_date": "30 October 2007", "owner_id": 523038, "owner_name": "Yank in Dixie", "owner_url": "http://www.panoramio.com/user/523038"}
,
{"photo_id": 723090, "photo_title": "Grand Canyon (Havasupai)", "photo_url": "http://www.panoramio.com/photo/723090", "photo_file_url": "http://mw2.google.com/mw-panoramio/photos/medium/723090.jpg", "longitude": -112.716293, "latitude": 36.270989, "width": 500, "height": 332, "upload_date": "07 February 2007", "owner_id": 66847, "owner_name": "Lukas Novak", "owner_url": "http://www.panoramio.com/user/66847"}
,
{"photo_id": 1226915, "photo_title": "Flamants roses sur l'Etang de Vaccarès", "photo_url": "http://www.panoramio.com/photo/1226915", "photo_file_url": "http://mw2.google.com/mw-panoramio/photos/medium/1226915.jpg", "longitude": 4.627304, "latitude": 43.551285, "width": 500, "height": 333, "upload_date": "08 March 2007", "owner_id": 78506, "owner_name": "Philippe Stoop", "owner_url": "http://www.panoramio.com/user/78506"}
,
{"photo_id": 2738883, "photo_title": "Tormenta", "photo_url": "http://www.panoramio.com/photo/2738883", "photo_file_url": "http://mw2.google.com/mw-panoramio/photos/medium/2738883.jpg", "longitude": -71.616096, "latitude": -33.042558, "width": 333, "height": 500, "upload_date": "14 June 2007", "owner_id": 477365, "owner_name": "✔chilefoto", "owner_url": "http://www.panoramio.com/user/477365"}
,
{"photo_id": 2875846, "photo_title": "Rannoch Moor, Scotland", "photo_url": "http://www.panoramio.com/photo/2875846", "photo_file_url": "http://mw2.google.com/mw-panoramio/photos/medium/2875846.jpg", "longitude": -4.745750, "latitude": 56.594467, "width": 500, "height": 462, "upload_date": "22 June 2007", "owner_id": 588149, "owner_name": "Adam Salwanowicz", "owner_url": "http://www.panoramio.com/user/588149"}
,
{"photo_id": 533456, "photo_title": "Zöld symphonia", "photo_url": "http://www.panoramio.com/photo/533456", "photo_file_url": "http://mw2.google.com/mw-panoramio/photos/medium/533456.jpg", "longitude": 17.500362, "latitude": 47.843579, "width": 500, "height": 333, "upload_date": "22 January 2007", "owner_id": 109117, "owner_name": "Busa Péter", "owner_url": "http://www.panoramio.com/user/109117"}
,
{"photo_id": 3078609, "photo_title": "Pagan - Sunset Vista", "photo_url": "http://www.panoramio.com/photo/3078609", "photo_file_url": "http://mw2.google.com/mw-panoramio/photos/medium/3078609.jpg", "longitude": 94.884624, "latitude": 21.166644, "width": 500, "height": 329, "upload_date": "02 July 2007", "owner_id": 73104, "owner_name": "zerega", "owner_url": "http://www.panoramio.com/user/73104"}
,
{"photo_id": 1599459, "photo_title": "Rosina Lamberti - Templestowe Sunset", "photo_url": "http://www.panoramio.com/photo/1599459", "photo_file_url": "http://mw2.google.com/mw-panoramio/photos/medium/1599459.jpg", "longitude": 145.145187, "latitude": -37.773700, "width": 500, "height": 332, "upload_date": "02 April 2007", "owner_id": 140796, "owner_name": "rosina lamberti", "owner_url": "http://www.panoramio.com/user/140796"}
,
{"photo_id": 37097, "photo_title": "Burj Al Arab at Night", "photo_url": "http://www.panoramio.com/photo/37097", "photo_file_url": "http://mw2.google.com/mw-panoramio/photos/medium/37097.jpg", "longitude": 55.190012, "latitude": 25.144411, "width": 333, "height": 500, "upload_date": "05 August 2006", "owner_id": 1295, "owner_name": "Matthew Walters", "owner_url": "http://www.panoramio.com/user/1295"}
,
{"photo_id": 42988, "photo_title": "Mekhong at Nakhon Phanom, Thailand", "photo_url": "http://www.panoramio.com/photo/42988", "photo_file_url": "http://mw2.google.com/mw-panoramio/photos/medium/42988.jpg", "longitude": 104.780045, "latitude": 17.415348, "width": 500, "height": 375, "upload_date": "29 August 2006", "owner_id": 6386, "owner_name": "Uwe Werner", "owner_url": "http://www.panoramio.com/user/6386"}
,
{"photo_id": 4738551, "photo_title": "Aquakatedral", "photo_url": "http://www.panoramio.com/photo/4738551", "photo_file_url": "http://mw2.google.com/mw-panoramio/photos/medium/4738551.jpg", "longitude": 18.026505, "latitude": 47.279462, "width": 500, "height": 334, "upload_date": "18 September 2007", "owner_id": 109117, "owner_name": "Busa Péter", "owner_url": "http://www.panoramio.com/user/109117"}
,
{"photo_id": 6126327, "photo_title": "Autumnal Morning", "photo_url": "http://www.panoramio.com/photo/6126327", "photo_file_url": "http://mw2.google.com/mw-panoramio/photos/medium/6126327.jpg", "longitude": 0.209620, "latitude": 51.658827, "width": 500, "height": 500, "upload_date": "25 November 2007", "owner_id": 1130880, "owner_name": "marksimms", "owner_url": "http://www.panoramio.com/user/1130880"}
,
{"photo_id": 1390072, "photo_title": "Winter Wonder Woods", "photo_url": "http://www.panoramio.com/photo/1390072", "photo_file_url": "http://mw2.google.com/mw-panoramio/photos/medium/1390072.jpg", "longitude": -123.184891, "latitude": 49.400027, "width": 500, "height": 343, "upload_date": "19 March 2007", "owner_id": 164125, "owner_name": "DannyXu", "owner_url": "http://www.panoramio.com/user/164125"}
,
{"photo_id": 8600061, "photo_title": "Templio", "photo_url": "http://www.panoramio.com/photo/8600061", "photo_file_url": "http://mw2.google.com/mw-panoramio/photos/medium/8600061.jpg", "longitude": 13.600258, "latitude": 37.288703, "width": 500, "height": 375, "upload_date": "17 March 2008", "owner_id": 325031, "owner_name": "Gibrail", "owner_url": "http://www.panoramio.com/user/325031"}
,
{"photo_id": 1232144, "photo_title": "the Wave", "photo_url": "http://www.panoramio.com/photo/1232144", "photo_file_url": "http://mw2.google.com/mw-panoramio/photos/medium/1232144.jpg", "longitude": -112.006313, "latitude": 36.995921, "width": 497, "height": 500, "upload_date": "08 March 2007", "owner_id": 256348, "owner_name": "DIEZ Jean-Paul", "owner_url": "http://www.panoramio.com/user/256348"}
,
{"photo_id": 12825028, "photo_title": "American Star shipwreck", "photo_url": "http://www.panoramio.com/photo/12825028", "photo_file_url": "http://static1.bareka.com/photos/medium/12825028.jpg", "longitude": -14.178050, "latitude": 28.345596, "width": 500, "height": 375, "upload_date": "05 August 2008", "owner_id": 1465912, "owner_name": "funtor", "owner_url": "http://www.panoramio.com/user/1465912"}
,
{"photo_id": 9705164, "photo_title": "Die blaue Stunde-Dresden", "photo_url": "http://www.panoramio.com/photo/9705164", "photo_file_url": "http://mw2.google.com/mw-panoramio/photos/medium/9705164.jpg", "longitude": 13.732374, "latitude": 51.061020, "width": 500, "height": 333, "upload_date": "26 April 2008", "owner_id": 1465912, "owner_name": "funtor", "owner_url": "http://www.panoramio.com/user/1465912"}
,
{"photo_id": 9701147, "photo_title": "After the thunderstorm II (Calella de Palafrugell)", "photo_url": "http://www.panoramio.com/photo/9701147", "photo_file_url": "http://mw2.google.com/mw-panoramio/photos/medium/9701147.jpg", "longitude": 3.185166, "latitude": 41.888413, "width": 500, "height": 347, "upload_date": "26 April 2008", "owner_id": 629243, "owner_name": "Olivier Faugeras", "owner_url": "http://www.panoramio.com/user/629243"}
,
{"photo_id": 3414277, "photo_title": "Morning at Vlixos_Lefkada", "photo_url": "http://www.panoramio.com/photo/3414277", "photo_file_url": "http://mw2.google.com/mw-panoramio/photos/medium/3414277.jpg", "longitude": 20.698693, "latitude": 38.689111, "width": 500, "height": 333, "upload_date": "20 July 2007", "owner_id": 242446, "owner_name": "Ntinos Lagos", "owner_url": "http://www.panoramio.com/user/242446"}
,
{"photo_id": 1205806, "photo_title": "A tavasz aranya", "photo_url": "http://www.panoramio.com/photo/1205806", "photo_file_url": "http://mw2.google.com/mw-panoramio/photos/medium/1205806.jpg", "longitude": 17.634773, "latitude": 47.557299, "width": 500, "height": 302, "upload_date": "07 March 2007", "owner_id": 109117, "owner_name": "Busa Péter", "owner_url": "http://www.panoramio.com/user/109117"}
,
{"photo_id": 6430261, "photo_title": "The wet side of winter", "photo_url": "http://www.panoramio.com/photo/6430261", "photo_file_url": "http://mw2.google.com/mw-panoramio/photos/medium/6430261.jpg", "longitude": 9.531434, "latitude": 48.559611, "width": 500, "height": 375, "upload_date": "11 December 2007", "owner_id": 424589, "owner_name": "PeSchn", "owner_url": "http://www.panoramio.com/user/424589"}
,
{"photo_id": 8116025, "photo_title": "Sale el Sol, Cae la Luna", "photo_url": "http://www.panoramio.com/photo/8116025", "photo_file_url": "http://mw2.google.com/mw-panoramio/photos/medium/8116025.jpg", "longitude": -71.875992, "latitude": -41.170126, "width": 500, "height": 333, "upload_date": "26 February 2008", "owner_id": 4483, "owner_name": "Miguel Coranti", "owner_url": "http://www.panoramio.com/user/4483"}
,
{"photo_id": 1235514, "photo_title": "Pulau Menjangan", "photo_url": "http://www.panoramio.com/photo/1235514", "photo_file_url": "http://mw2.google.com/mw-panoramio/photos/medium/1235514.jpg", "longitude": 114.502687, "latitude": -8.095941, "width": 500, "height": 341, "upload_date": "09 March 2007", "owner_id": 232099, "owner_name": "mabut", "owner_url": "http://www.panoramio.com/user/232099"}
,
{"photo_id": 32827, "photo_title": "Xi'an Bell Tower", "photo_url": "http://www.panoramio.com/photo/32827", "photo_file_url": "http://mw2.google.com/mw-panoramio/photos/medium/32827.jpg", "longitude": 108.943026, "latitude": 34.260759, "width": 500, "height": 375, "upload_date": "17 July 2006", "owner_id": 5168, "owner_name": "Markus Källander", "owner_url": "http://www.panoramio.com/user/5168"}
,
{"photo_id": 798014, "photo_title": "Porto Canale", "photo_url": "http://www.panoramio.com/photo/798014", "photo_file_url": "http://mw2.google.com/mw-panoramio/photos/medium/798014.jpg", "longitude": 12.399648, "latitude": 44.203343, "width": 500, "height": 332, "upload_date": "12 February 2007", "owner_id": 159455, "owner_name": "©Franco Truscello", "owner_url": "http://www.panoramio.com/user/159455"}
,
{"photo_id": 10517317, "photo_title": "Route 66", "photo_url": "http://www.panoramio.com/photo/10517317", "photo_file_url": "http://mw2.google.com/mw-panoramio/photos/medium/10517317.jpg", "longitude": 18.027492, "latitude": 46.268071, "width": 500, "height": 375, "upload_date": "23 May 2008", "owner_id": 328249, "owner_name": "v.zsoloo", "owner_url": "http://www.panoramio.com/user/328249"}
,
{"photo_id": 416838, "photo_title": "Old Faithful on New Year's Morning", "photo_url": "http://www.panoramio.com/photo/416838", "photo_file_url": "http://mw2.google.com/mw-panoramio/photos/medium/416838.jpg", "longitude": -110.827900, "latitude": 44.459354, "width": 500, "height": 375, "upload_date": "13 January 2007", "owner_id": 71099, "owner_name": "Eve in Montana", "owner_url": "http://www.panoramio.com/user/71099"}
,
{"photo_id": 5964, "photo_title": "Skradin bridge", "photo_url": "http://www.panoramio.com/photo/5964", "photo_file_url": "http://mw2.google.com/mw-panoramio/photos/medium/5964.jpg", "longitude": 15.908031, "latitude": 43.806040, "width": 500, "height": 333, "upload_date": "17 December 2005", "owner_id": 989, "owner_name": "Mrgud", "owner_url": "http://www.panoramio.com/user/989"}
,
{"photo_id": 419923, "photo_title": "bandaibashi2", "photo_url": "http://www.panoramio.com/photo/419923", "photo_file_url": "http://mw2.google.com/mw-panoramio/photos/medium/419923.jpg", "longitude": 139.055500, "latitude": 37.920029, "width": 334, "height": 500, "upload_date": "14 January 2007", "owner_id": 86411, "owner_name": "中村脩-Osamu nakamura", "owner_url": "http://www.panoramio.com/user/86411"}
,
{"photo_id": 26985, "photo_title": "Cementerio General", "photo_url": "http://www.panoramio.com/photo/26985", "photo_file_url": "http://mw2.google.com/mw-panoramio/photos/medium/26985.jpg", "longitude": -84.091458, "latitude": 9.930174, "width": 393, "height": 500, "upload_date": "23 June 2006", "owner_id": 4112, "owner_name": "Roberto Garcia", "owner_url": "http://www.panoramio.com/user/4112"}
,
{"photo_id": 405866, "photo_title": "awasima", "photo_url": "http://www.panoramio.com/photo/405866", "photo_file_url": "http://mw2.google.com/mw-panoramio/photos/medium/405866.jpg", "longitude": 139.229908, "latitude": 38.463267, "width": 396, "height": 500, "upload_date": "13 January 2007", "owner_id": 86411, "owner_name": "中村脩-Osamu nakamura", "owner_url": "http://www.panoramio.com/user/86411"}
,
{"photo_id": 1319538, "photo_title": "What a place !", "photo_url": "http://www.panoramio.com/photo/1319538", "photo_file_url": "http://mw2.google.com/mw-panoramio/photos/medium/1319538.jpg", "longitude": -62.542677, "latitude": 6.022092, "width": 329, "height": 500, "upload_date": "14 March 2007", "owner_id": 232099, "owner_name": "mabut", "owner_url": "http://www.panoramio.com/user/232099"}
,
{"photo_id": 444280, "photo_title": "Cigars are for ladies", "photo_url": "http://www.panoramio.com/photo/444280", "photo_file_url": "http://mw2.google.com/mw-panoramio/photos/medium/444280.jpg", "longitude": -82.351027, "latitude": 23.139117, "width": 500, "height": 375, "upload_date": "15 January 2007", "owner_id": 57893, "owner_name": "ThoiryK", "owner_url": "http://www.panoramio.com/user/57893"}
,
{"photo_id": 6016, "photo_title": "Šibenik - tiramol", "photo_url": "http://www.panoramio.com/photo/6016", "photo_file_url": "http://mw2.google.com/mw-panoramio/photos/medium/6016.jpg", "longitude": 15.890865, "latitude": 43.735693, "width": 473, "height": 500, "upload_date": "18 December 2005", "owner_id": 991, "owner_name": "Mario Marotti", "owner_url": "http://www.panoramio.com/user/991"}
,
{"photo_id": 3531661, "photo_title": "Zúzmara", "photo_url": "http://www.panoramio.com/photo/3531661", "photo_file_url": "http://mw2.google.com/mw-panoramio/photos/medium/3531661.jpg", "longitude": 17.498131, "latitude": 47.847727, "width": 500, "height": 346, "upload_date": "25 July 2007", "owner_id": 689769, "owner_name": "Ponty István", "owner_url": "http://www.panoramio.com/user/689769"}
,
{"photo_id": 723088, "photo_title": "Friendly Evening Haze", "photo_url": "http://www.panoramio.com/photo/723088", "photo_file_url": "http://mw2.google.com/mw-panoramio/photos/medium/723088.jpg", "longitude": 25.428715, "latitude": 36.421282, "width": 333, "height": 500, "upload_date": "07 February 2007", "owner_id": 66847, "owner_name": "Lukas Novak", "owner_url": "http://www.panoramio.com/user/66847"}
,
{"photo_id": 422813, "photo_title": "tanokami", "photo_url": "http://www.panoramio.com/photo/422813", "photo_file_url": "http://mw2.google.com/mw-panoramio/photos/medium/422813.jpg", "longitude": 138.777237, "latitude": 37.581453, "width": 500, "height": 379, "upload_date": "14 January 2007", "owner_id": 86411, "owner_name": "中村脩-Osamu nakamura", "owner_url": "http://www.panoramio.com/user/86411"}
,
{"photo_id": 516256, "photo_title": "A hitehagyott", "photo_url": "http://www.panoramio.com/photo/516256", "photo_file_url": "http://mw2.google.com/mw-panoramio/photos/medium/516256.jpg", "longitude": 17.533493, "latitude": 47.842139, "width": 500, "height": 291, "upload_date": "21 January 2007", "owner_id": 109117, "owner_name": "Busa Péter", "owner_url": "http://www.panoramio.com/user/109117"}
,
{"photo_id": 706978, "photo_title": "Snow at full moon", "photo_url": "http://www.panoramio.com/photo/706978", "photo_file_url": "http://mw2.google.com/mw-panoramio/photos/medium/706978.jpg", "longitude": 23.878784, "latitude": 69.829207, "width": 500, "height": 334, "upload_date": "05 February 2007", "owner_id": 56091, "owner_name": "Kjetil Vaage Øie", "owner_url": "http://www.panoramio.com/user/56091"}
,
{"photo_id": 4994983, "photo_title": "Camogli - Castello della \"Dragonara\"  (north-west looking photograph)", "photo_url": "http://www.panoramio.com/photo/4994983", "photo_file_url": "http://mw2.google.com/mw-panoramio/photos/medium/4994983.jpg", "longitude": 9.151220, "latitude": 44.350207, "width": 325, "height": 500, "upload_date": "30 September 2007", "owner_id": 180947, "owner_name": "gilberto silvestri", "owner_url": "http://www.panoramio.com/user/180947"}
,
{"photo_id": 1315255, "photo_title": "Tulpen in Holland", "photo_url": "http://www.panoramio.com/photo/1315255", "photo_file_url": "http://mw2.google.com/mw-panoramio/photos/medium/1315255.jpg", "longitude": 4.556494, "latitude": 52.278451, "width": 500, "height": 321, "upload_date": "14 March 2007", "owner_id": 193467, "owner_name": "Jörg Behmann", "owner_url": "http://www.panoramio.com/user/193467"}
,
{"photo_id": 5204412, "photo_title": "Alaska Range", "photo_url": "http://www.panoramio.com/photo/5204412", "photo_file_url": "http://mw2.google.com/mw-panoramio/photos/medium/5204412.jpg", "longitude": -150.150146, "latitude": 62.734601, "width": 500, "height": 375, "upload_date": "09 October 2007", "owner_id": 71099, "owner_name": "Eve in Montana", "owner_url": "http://www.panoramio.com/user/71099"}
,
{"photo_id": 5204668, "photo_title": "Scotland", "photo_url": "http://www.panoramio.com/photo/5204668", "photo_file_url": "http://mw2.google.com/mw-panoramio/photos/medium/5204668.jpg", "longitude": -4.821882, "latitude": 56.634188, "width": 500, "height": 500, "upload_date": "09 October 2007", "owner_id": 588149, "owner_name": "Adam Salwanowicz", "owner_url": "http://www.panoramio.com/user/588149"}
,
{"photo_id": 1706188, "photo_title": "Night", "photo_url": "http://www.panoramio.com/photo/1706188", "photo_file_url": "http://mw2.google.com/mw-panoramio/photos/medium/1706188.jpg", "longitude": 21.440957, "latitude": 48.427236, "width": 390, "height": 500, "upload_date": "09 April 2007", "owner_id": 346103, "owner_name": "lacitot", "owner_url": "http://www.panoramio.com/user/346103"}
,
{"photo_id": 6366165, "photo_title": "Il Latemar", "photo_url": "http://www.panoramio.com/photo/6366165", "photo_file_url": "http://mw2.google.com/mw-panoramio/photos/medium/6366165.jpg", "longitude": 11.575856, "latitude": 46.410138, "width": 500, "height": 375, "upload_date": "08 December 2007", "owner_id": 933456, "owner_name": "© Marco De Candido", "owner_url": "http://www.panoramio.com/user/933456"}
,
{"photo_id": 5433048, "photo_title": "moon photoshop", "photo_url": "http://www.panoramio.com/photo/5433048", "photo_file_url": "http://mw2.google.com/mw-panoramio/photos/medium/5433048.jpg", "longitude": 11.337848, "latitude": 46.460602, "width": 500, "height": 335, "upload_date": "20 October 2007", "owner_id": 578163, "owner_name": "Margherita-Italy", "owner_url": "http://www.panoramio.com/user/578163"}
,
{"photo_id": 611035, "photo_title": "Ice berg", "photo_url": "http://www.panoramio.com/photo/611035", "photo_file_url": "http://mw2.google.com/mw-panoramio/photos/medium/611035.jpg", "longitude": -58.886719, "latitude": -63.470145, "width": 333, "height": 500, "upload_date": "29 January 2007", "owner_id": 14940, "owner_name": "elmtree", "owner_url": "http://www.panoramio.com/user/14940"}
,
{"photo_id": 4258269, "photo_title": "Új nap kelte", "photo_url": "http://www.panoramio.com/photo/4258269", "photo_file_url": "http://mw2.google.com/mw-panoramio/photos/medium/4258269.jpg", "longitude": 17.474785, "latitude": 47.832057, "width": 500, "height": 327, "upload_date": "28 August 2007", "owner_id": 109117, "owner_name": "Busa Péter", "owner_url": "http://www.panoramio.com/user/109117"}
,
{"photo_id": 37088, "photo_title": "Komandoo From The Air", "photo_url": "http://www.panoramio.com/photo/37088", "photo_file_url": "http://mw2.google.com/mw-panoramio/photos/medium/37088.jpg", "longitude": 73.422661, "latitude": 5.496900, "width": 500, "height": 278, "upload_date": "05 August 2006", "owner_id": 1295, "owner_name": "Matthew Walters", "owner_url": "http://www.panoramio.com/user/1295"}
,
{"photo_id": 71667, "photo_title": "2006년06월11일(일) 장전계곡 및 단임골 046_resize", "photo_url": "http://www.panoramio.com/photo/71667", "photo_file_url": "http://mw2.google.com/mw-panoramio/photos/medium/71667.jpg", "longitude": 128.533516, "latitude": 37.435340, "width": 500, "height": 333, "upload_date": "28 October 2006", "owner_id": 9424, "owner_name": "박범호", "owner_url": "http://www.panoramio.com/user/9424"}
,
{"photo_id": 5300468, "photo_title": "Lac du Vieux Emosson", "photo_url": "http://www.panoramio.com/photo/5300468", "photo_file_url": "http://mw2.google.com/mw-panoramio/photos/medium/5300468.jpg", "longitude": 6.883256, "latitude": 46.055744, "width": 500, "height": 500, "upload_date": "14 October 2007", "owner_id": 588149, "owner_name": "Adam Salwanowicz", "owner_url": "http://www.panoramio.com/user/588149"}
,
{"photo_id": 591351, "photo_title": "smokestack_8739", "photo_url": "http://www.panoramio.com/photo/591351", "photo_file_url": "http://mw2.google.com/mw-panoramio/photos/medium/591351.jpg", "longitude": -79.386027, "latitude": 43.648168, "width": 500, "height": 392, "upload_date": "27 January 2007", "owner_id": 17488, "owner_name": "John Gillett", "owner_url": "http://www.panoramio.com/user/17488"}
,
{"photo_id": 11224316, "photo_title": "Remindful winter season-Vardar river", "photo_url": "http://www.panoramio.com/photo/11224316", "photo_file_url": "http://mw2.google.com/mw-panoramio/photos/medium/11224316.jpg", "longitude": 21.084051, "latitude": 42.013782, "width": 214, "height": 500, "upload_date": "15 June 2008", "owner_id": 695042, "owner_name": "Neim Sejfuli ♦", "owner_url": "http://www.panoramio.com/user/695042"}
,
{"photo_id": 5968187, "photo_title": "2007 VITORIA Alava PIXELECTA", "photo_url": "http://www.panoramio.com/photo/5968187", "photo_file_url": "http://mw2.google.com/mw-panoramio/photos/medium/5968187.jpg", "longitude": -2.650087, "latitude": 42.860206, "width": 500, "height": 333, "upload_date": "17 November 2007", "owner_id": 163655, "owner_name": "[[[   PIXELECTA   ]]]", "owner_url": "http://www.panoramio.com/user/163655"}
,
{"photo_id": 1781517, "photo_title": "Yosemite Falls in Winter", "photo_url": "http://www.panoramio.com/photo/1781517", "photo_file_url": "http://mw2.google.com/mw-panoramio/photos/medium/1781517.jpg", "longitude": -119.590130, "latitude": 37.744318, "width": 500, "height": 400, "upload_date": "15 April 2007", "owner_id": 376395, "owner_name": "JeffSullivan (www.MyPhotoGuides.com)", "owner_url": "http://www.panoramio.com/user/376395"}
,
{"photo_id": 5796376, "photo_title": "Shuto Expressway Loop Line in Nihombashi", "photo_url": "http://www.panoramio.com/photo/5796376", "photo_file_url": "http://mw2.google.com/mw-panoramio/photos/medium/5796376.jpg", "longitude": 139.776344, "latitude": 35.684536, "width": 327, "height": 500, "upload_date": "08 November 2007", "owner_id": 558055, "owner_name": "www.tokyoform.com", "owner_url": "http://www.panoramio.com/user/558055"}
,
{"photo_id": 5523741, "photo_title": "Saskatchewan Sunset October 24/07 (and there is the flat land of the prairies at the bottom of this pic ;)", "photo_url": "http://www.panoramio.com/photo/5523741", "photo_file_url": "http://mw2.google.com/mw-panoramio/photos/medium/5523741.jpg", "longitude": -105.535011, "latitude": 50.502073, "width": 375, "height": 500, "upload_date": "24 October 2007", "owner_id": 133037, "owner_name": "Lilypon", "owner_url": "http://www.panoramio.com/user/133037"}
,
{"photo_id": 196125, "photo_title": "arnía y covachos", "photo_url": "http://www.panoramio.com/photo/196125", "photo_file_url": "http://mw2.google.com/mw-panoramio/photos/medium/196125.jpg", "longitude": -3.914223, "latitude": 43.474349, "width": 500, "height": 337, "upload_date": "20 December 2006", "owner_id": 38804, "owner_name": "www.oscarsanchez.net", "owner_url": "http://www.panoramio.com/user/38804"}
,
{"photo_id": 349726, "photo_title": "thailand ko-samui sunset", "photo_url": "http://www.panoramio.com/photo/349726", "photo_file_url": "http://mw2.google.com/mw-panoramio/photos/medium/349726.jpg", "longitude": 99.930954, "latitude": 9.472344, "width": 500, "height": 334, "upload_date": "08 January 2007", "owner_id": 69671, "owner_name": "illusandpics.com", "owner_url": "http://www.panoramio.com/user/69671"}
,
{"photo_id": 280106, "photo_title": "dune01", "photo_url": "http://www.panoramio.com/photo/280106", "photo_file_url": "http://mw2.google.com/mw-panoramio/photos/medium/280106.jpg", "longitude": -5.089073, "latitude": 30.229408, "width": 500, "height": 345, "upload_date": "01 January 2007", "owner_id": 58867, "owner_name": "Lachaud Franck", "owner_url": "http://www.panoramio.com/user/58867"}
,
{"photo_id": 4446015, "photo_title": "Mennyei fényjáték", "photo_url": "http://www.panoramio.com/photo/4446015", "photo_file_url": "http://mw2.google.com/mw-panoramio/photos/medium/4446015.jpg", "longitude": 17.818108, "latitude": 47.525084, "width": 500, "height": 333, "upload_date": "06 September 2007", "owner_id": 109117, "owner_name": "Busa Péter", "owner_url": "http://www.panoramio.com/user/109117"}
,
{"photo_id": 4644180, "photo_title": "Bridalveil Falls from Valley View", "photo_url": "http://www.panoramio.com/photo/4644180", "photo_file_url": "http://mw2.google.com/mw-panoramio/photos/medium/4644180.jpg", "longitude": -119.661723, "latitude": 37.717419, "width": 500, "height": 357, "upload_date": "14 September 2007", "owner_id": 376395, "owner_name": "JeffSullivan (www.MyPhotoGuides.com)", "owner_url": "http://www.panoramio.com/user/376395"}
,
{"photo_id": 457302, "photo_title": "Matterhorn Zermatt", "photo_url": "http://www.panoramio.com/photo/457302", "photo_file_url": "http://mw2.google.com/mw-panoramio/photos/medium/457302.jpg", "longitude": 7.746391, "latitude": 46.016992, "width": 500, "height": 375, "upload_date": "16 January 2007", "owner_id": 47930, "owner_name": "werni", "owner_url": "http://www.panoramio.com/user/47930"}
,
{"photo_id": 4258138, "photo_title": "Szentkút", "photo_url": "http://www.panoramio.com/photo/4258138", "photo_file_url": "http://mw2.google.com/mw-panoramio/photos/medium/4258138.jpg", "longitude": 17.731848, "latitude": 47.243755, "width": 500, "height": 334, "upload_date": "28 August 2007", "owner_id": 109117, "owner_name": "Busa Péter", "owner_url": "http://www.panoramio.com/user/109117"}
,
{"photo_id": 26986, "photo_title": "Cementerio General", "photo_url": "http://www.panoramio.com/photo/26986", "photo_file_url": "http://mw2.google.com/mw-panoramio/photos/medium/26986.jpg", "longitude": -84.091158, "latitude": 9.930047, "width": 500, "height": 373, "upload_date": "23 June 2006", "owner_id": 4112, "owner_name": "Roberto Garcia", "owner_url": "http://www.panoramio.com/user/4112"}
,
{"photo_id": 1269869, "photo_title": "Barents Sea at night, Finnmark, Norway", "photo_url": "http://www.panoramio.com/photo/1269869", "photo_file_url": "http://mw2.google.com/mw-panoramio/photos/medium/1269869.jpg", "longitude": 30.868149, "latitude": 70.438638, "width": 500, "height": 324, "upload_date": "11 March 2007", "owner_id": 66734, "owner_name": "Svein Solhaug", "owner_url": "http://www.panoramio.com/user/66734"}
,
{"photo_id": 515971, "photo_title": "A hosszútávfutó magányossága", "photo_url": "http://www.panoramio.com/photo/515971", "photo_file_url": "http://mw2.google.com/mw-panoramio/photos/medium/515971.jpg", "longitude": 17.870121, "latitude": 47.373012, "width": 500, "height": 276, "upload_date": "21 January 2007", "owner_id": 109117, "owner_name": "Busa Péter", "owner_url": "http://www.panoramio.com/user/109117"}
,
{"photo_id": 36486, "photo_title": "Sunrise on Trondheimsfjord", "photo_url": "http://www.panoramio.com/photo/36486", "photo_file_url": "http://mw2.google.com/mw-panoramio/photos/medium/36486.jpg", "longitude": 10.333843, "latitude": 63.456186, "width": 500, "height": 332, "upload_date": "02 August 2006", "owner_id": 5703, "owner_name": "dancer", "owner_url": "http://www.panoramio.com/user/5703"}
,
{"photo_id": 4950702, "photo_title": "Abandoned Gas Stand, Hachimantai, Iwate, Japan", "photo_url": "http://www.panoramio.com/photo/4950702", "photo_file_url": "http://mw2.google.com/mw-panoramio/photos/medium/4950702.jpg", "longitude": 141.062308, "latitude": 39.955547, "width": 500, "height": 335, "upload_date": "28 September 2007", "owner_id": 699984, "owner_name": "Fried Toast", "owner_url": "http://www.panoramio.com/user/699984"}
,
{"photo_id": 2345653, "photo_title": "planet mars", "photo_url": "http://www.panoramio.com/photo/2345653", "photo_file_url": "http://mw2.google.com/mw-panoramio/photos/medium/2345653.jpg", "longitude": 33.631908, "latitude": 27.380118, "width": 500, "height": 322, "upload_date": "22 May 2007", "owner_id": 223374, "owner_name": "voutsen", "owner_url": "http://www.panoramio.com/user/223374"}
,
{"photo_id": 4612307, "photo_title": "Sitges - Spinaker", "photo_url": "http://www.panoramio.com/photo/4612307", "photo_file_url": "http://mw2.google.com/mw-panoramio/photos/medium/4612307.jpg", "longitude": 1.859436, "latitude": 41.211722, "width": 500, "height": 371, "upload_date": "13 September 2007", "owner_id": 138691, "owner_name": "Josep Maria Alegre", "owner_url": "http://www.panoramio.com/user/138691"}
,
{"photo_id": 4644311, "photo_title": "Through the Looking Glass", "photo_url": "http://www.panoramio.com/photo/4644311", "photo_file_url": "http://mw2.google.com/mw-panoramio/photos/medium/4644311.jpg", "longitude": -119.649745, "latitude": 37.722019, "width": 333, "height": 500, "upload_date": "14 September 2007", "owner_id": 376395, "owner_name": "JeffSullivan (www.MyPhotoGuides.com)", "owner_url": "http://www.panoramio.com/user/376395"}
,
{"photo_id": 1480664, "photo_title": "Királyi szurkolótábor", "photo_url": "http://www.panoramio.com/photo/1480664", "photo_file_url": "http://mw2.google.com/mw-panoramio/photos/medium/1480664.jpg", "longitude": 17.300034, "latitude": 47.190646, "width": 500, "height": 269, "upload_date": "24 March 2007", "owner_id": 109117, "owner_name": "Busa Péter", "owner_url": "http://www.panoramio.com/user/109117"}
,
{"photo_id": 8492774, "photo_title": "Lago Fedaia  in estate  Panoramio and ATP first CONTEST, March 2008, category  Scenery : awarded \" Honorable Mention\". Many thanks to all voters", "photo_url": "http://www.panoramio.com/photo/8492774", "photo_file_url": "http://mw2.google.com/mw-panoramio/photos/medium/8492774.jpg", "longitude": 11.867519, "latitude": 46.463128, "width": 500, "height": 375, "upload_date": "12 March 2008", "owner_id": 6033, "owner_name": "► Marco Vanzo", "owner_url": "http://www.panoramio.com/user/6033"}
,
{"photo_id": 57835, "photo_title": "Seewaldsee 2 - St.Koloman", "photo_url": "http://www.panoramio.com/photo/57835", "photo_file_url": "http://mw2.google.com/mw-panoramio/photos/medium/57835.jpg", "longitude": 13.274918, "latitude": 47.630115, "width": 500, "height": 333, "upload_date": "05 October 2006", "owner_id": 8060, "owner_name": "Norbert MAIER", "owner_url": "http://www.panoramio.com/user/8060"}
,
{"photo_id": 57837, "photo_title": "Der Hraunfossar an einem kalten Wintertag .....(MS)", "photo_url": "http://www.panoramio.com/photo/57837", "photo_file_url": "http://mw2.google.com/mw-panoramio/photos/medium/57837.jpg", "longitude": -20.939941, "latitude": 64.698078, "width": 500, "height": 264, "upload_date": "05 October 2006", "owner_id": 7434, "owner_name": "baldinger reisen ag, waedenswil/switzerland", "owner_url": "http://www.panoramio.com/user/7434"}
,
{"photo_id": 70641, "photo_title": "Lake Nakuru (Kenya)", "photo_url": "http://www.panoramio.com/photo/70641", "photo_file_url": "http://mw2.google.com/mw-panoramio/photos/medium/70641.jpg", "longitude": 36.114979, "latitude": -0.324782, "width": 500, "height": 333, "upload_date": "25 October 2006", "owner_id": 8975, "owner_name": "Laura Sayalero", "owner_url": "http://www.panoramio.com/user/8975"}
,
{"photo_id": 766205, "photo_title": "posta sol porto colom", "photo_url": "http://www.panoramio.com/photo/766205", "photo_file_url": "http://mw2.google.com/mw-panoramio/photos/medium/766205.jpg", "longitude": 3.264495, "latitude": 39.425093, "width": 500, "height": 335, "upload_date": "10 February 2007", "owner_id": 134682, "owner_name": "------ Cafate ------", "owner_url": "http://www.panoramio.com/user/134682"}
,
{"photo_id": 10662910, "photo_title": "Megvilágosodván", "photo_url": "http://www.panoramio.com/photo/10662910", "photo_file_url": "http://mw2.google.com/mw-panoramio/photos/medium/10662910.jpg", "longitude": 17.718544, "latitude": 47.460130, "width": 500, "height": 334, "upload_date": "27 May 2008", "owner_id": 109117, "owner_name": "Busa Péter", "owner_url": "http://www.panoramio.com/user/109117"}
,
{"photo_id": 8703547, "photo_title": "Lonely bike-rider", "photo_url": "http://www.panoramio.com/photo/8703547", "photo_file_url": "http://mw2.google.com/mw-panoramio/photos/medium/8703547.jpg", "longitude": 6.039004, "latitude": 52.208974, "width": 500, "height": 467, "upload_date": "21 March 2008", "owner_id": 523564, "owner_name": "Luud Riphagen", "owner_url": "http://www.panoramio.com/user/523564"}
,
{"photo_id": 11669907, "photo_title": "Alba sulle pale di San Martino", "photo_url": "http://www.panoramio.com/photo/11669907", "photo_file_url": "http://mw2.google.com/mw-panoramio/photos/medium/11669907.jpg", "longitude": 11.568518, "latitude": 46.345269, "width": 500, "height": 361, "upload_date": "30 June 2008", "owner_id": 6033, "owner_name": "► Marco Vanzo", "owner_url": "http://www.panoramio.com/user/6033"}
,
{"photo_id": 11403916, "photo_title": "Lonely", "photo_url": "http://www.panoramio.com/photo/11403916", "photo_file_url": "http://mw2.google.com/mw-panoramio/photos/medium/11403916.jpg", "longitude": 18.164520, "latitude": 46.345269, "width": 500, "height": 375, "upload_date": "21 June 2008", "owner_id": 328249, "owner_name": "v.zsoloo", "owner_url": "http://www.panoramio.com/user/328249"}
,
{"photo_id": 289803, "photo_title": "Rain Clouds", "photo_url": "http://www.panoramio.com/photo/289803", "photo_file_url": "http://mw2.google.com/mw-panoramio/photos/medium/289803.jpg", "longitude": -57.733154, "latitude": -51.661908, "width": 500, "height": 335, "upload_date": "03 January 2007", "owner_id": 61890, "owner_name": "enriquevidalphoto.com", "owner_url": "http://www.panoramio.com/user/61890"}
,
{"photo_id": 123413, "photo_title": "Paisaje cromático de Landmanalaugar", "photo_url": "http://www.panoramio.com/photo/123413", "photo_file_url": "http://mw2.google.com/mw-panoramio/photos/medium/123413.jpg", "longitude": -19.085140, "latitude": 63.918285, "width": 500, "height": 332, "upload_date": "12 December 2006", "owner_id": 20549, "owner_name": "oscarvg", "owner_url": "http://www.panoramio.com/user/20549"}
,
{"photo_id": 595734, "photo_title": "Sphinx profile", "photo_url": "http://www.panoramio.com/photo/595734", "photo_file_url": "http://mw2.google.com/mw-panoramio/photos/medium/595734.jpg", "longitude": 31.137791, "latitude": 29.975034, "width": 500, "height": 330, "upload_date": "27 January 2007", "owner_id": 124418, "owner_name": "Pierre-Jean Durieu", "owner_url": "http://www.panoramio.com/user/124418"}
,
{"photo_id": 3282726, "photo_title": "Shanghai - Inside the Jinmao Tower", "photo_url": "http://www.panoramio.com/photo/3282726", "photo_file_url": "http://mw2.google.com/mw-panoramio/photos/medium/3282726.jpg", "longitude": 121.501153, "latitude": 31.237519, "width": 500, "height": 335, "upload_date": "13 July 2007", "owner_id": 578163, "owner_name": "Margherita-Italy", "owner_url": "http://www.panoramio.com/user/578163"}
,
{"photo_id": 1346342, "photo_title": "nemrut", "photo_url": "http://www.panoramio.com/photo/1346342", "photo_file_url": "http://mw2.google.com/mw-panoramio/photos/medium/1346342.jpg", "longitude": 38.761826, "latitude": 38.042413, "width": 340, "height": 500, "upload_date": "16 March 2007", "owner_id": 2659, "owner_name": "ozalph", "owner_url": "http://www.panoramio.com/user/2659"}
,
{"photo_id": 151849, "photo_title": "panoramas photo @ the cross at Xin-Yi and Kee-Lung road ( my 2nd try )", "photo_url": "http://www.panoramio.com/photo/151849", "photo_file_url": "http://mw2.google.com/mw-panoramio/photos/medium/151849.jpg", "longitude": 121.559209, "latitude": 25.033073, "width": 500, "height": 348, "upload_date": "15 December 2006", "owner_id": 27791, "owner_name": "Jerome Chen", "owner_url": "http://www.panoramio.com/user/27791"}
,
{"photo_id": 1212973, "photo_title": "Perhaps Neruda's View", "photo_url": "http://www.panoramio.com/photo/1212973", "photo_file_url": "http://mw2.google.com/mw-panoramio/photos/medium/1212973.jpg", "longitude": 14.398935, "latitude": 50.084752, "width": 500, "height": 333, "upload_date": "07 March 2007", "owner_id": 66847, "owner_name": "Lukas Novak", "owner_url": "http://www.panoramio.com/user/66847"}
,
{"photo_id": 809789, "photo_title": "Pihike", "photo_url": "http://www.panoramio.com/photo/809789", "photo_file_url": "http://mw2.google.com/mw-panoramio/photos/medium/809789.jpg", "longitude": 17.457018, "latitude": 47.881010, "width": 500, "height": 387, "upload_date": "13 February 2007", "owner_id": 109117, "owner_name": "Busa Péter", "owner_url": "http://www.panoramio.com/user/109117"}
,
{"photo_id": 88150, "photo_title": "Marmore Falls - Umbria - Italy", "photo_url": "http://www.panoramio.com/photo/88150", "photo_file_url": "http://mw2.google.com/mw-panoramio/photos/medium/88150.jpg", "longitude": 12.716667, "latitude": 42.550000, "width": 375, "height": 500, "upload_date": "28 November 2006", "owner_id": 11098, "owner_name": "Michele Masnata", "owner_url": "http://www.panoramio.com/user/11098"}
,
{"photo_id": 624990, "photo_title": "Mélyrepülés", "photo_url": "http://www.panoramio.com/photo/624990", "photo_file_url": "http://mw2.google.com/mw-panoramio/photos/medium/624990.jpg", "longitude": 17.455988, "latitude": 47.881931, "width": 500, "height": 288, "upload_date": "30 January 2007", "owner_id": 109117, "owner_name": "Busa Péter", "owner_url": "http://www.panoramio.com/user/109117"}
,
{"photo_id": 612449, "photo_title": "Rio de Janeiro - Vista do Corcovado ©G.Schüür", "photo_url": "http://www.panoramio.com/photo/612449", "photo_file_url": "http://mw2.google.com/mw-panoramio/photos/medium/612449.jpg", "longitude": -43.210323, "latitude": -22.951463, "width": 500, "height": 400, "upload_date": "29 January 2007", "owner_id": 120756, "owner_name": "Germano Schüür", "owner_url": "http://www.panoramio.com/user/120756"}
,
{"photo_id": 1545313, "photo_title": "Tempestade", "photo_url": "http://www.panoramio.com/photo/1545313", "photo_file_url": "http://mw2.google.com/mw-panoramio/photos/medium/1545313.jpg", "longitude": -48.678703, "latitude": -26.643470, "width": 500, "height": 341, "upload_date": "29 March 2007", "owner_id": 160342, "owner_name": "Jakson Santos", "owner_url": "http://www.panoramio.com/user/160342"}
,
{"photo_id": 1595492, "photo_title": "Explosión Rosa", "photo_url": "http://www.panoramio.com/photo/1595492", "photo_file_url": "http://mw2.google.com/mw-panoramio/photos/medium/1595492.jpg", "longitude": -73.250393, "latitude": -39.813481, "width": 500, "height": 375, "upload_date": "02 April 2007", "owner_id": 327310, "owner_name": "Erwin Woenckhaus", "owner_url": "http://www.panoramio.com/user/327310"}
,
{"photo_id": 5501284, "photo_title": "Da qui passano i sogni...", "photo_url": "http://www.panoramio.com/photo/5501284", "photo_file_url": "http://mw2.google.com/mw-panoramio/photos/medium/5501284.jpg", "longitude": 12.335930, "latitude": 45.435563, "width": 375, "height": 500, "upload_date": "23 October 2007", "owner_id": 325031, "owner_name": "Gibrail", "owner_url": "http://www.panoramio.com/user/325031"}
,
{"photo_id": 444265, "photo_title": "Cafe, Calle and Capitol of Cuba", "photo_url": "http://www.panoramio.com/photo/444265", "photo_file_url": "http://mw2.google.com/mw-panoramio/photos/medium/444265.jpg", "longitude": -82.350453, "latitude": 23.136354, "width": 500, "height": 375, "upload_date": "15 January 2007", "owner_id": 57893, "owner_name": "ThoiryK", "owner_url": "http://www.panoramio.com/user/57893"}
,
{"photo_id": 9590, "photo_title": "South Street Seaport and Financial Center Skyline [007783]", "photo_url": "http://www.panoramio.com/photo/9590", "photo_file_url": "http://mw2.google.com/mw-panoramio/photos/medium/9590.jpg", "longitude": -74.001760, "latitude": 40.704937, "width": 500, "height": 375, "upload_date": "04 February 2006", "owner_id": 1489, "owner_name": "Thorsten", "owner_url": "http://www.panoramio.com/user/1489"}
,
{"photo_id": 204153, "photo_title": "Stormheimfjell and Hamperokken mountains near Brevikeidet ", "photo_url": "http://www.panoramio.com/photo/204153", "photo_file_url": "http://mw2.google.com/mw-panoramio/photos/medium/204153.jpg", "longitude": 19.650421, "latitude": 69.668899, "width": 500, "height": 375, "upload_date": "21 December 2006", "owner_id": 39160, "owner_name": "Snemann", "owner_url": "http://www.panoramio.com/user/39160"}
,
{"photo_id": 916095, "photo_title": "Before daybreak on Mount Etna (as seen from Piano Provenzana)", "photo_url": "http://www.panoramio.com/photo/916095", "photo_file_url": "http://mw2.google.com/mw-panoramio/photos/medium/916095.jpg", "longitude": 15.038610, "latitude": 37.793881, "width": 500, "height": 375, "upload_date": "20 February 2007", "owner_id": 67714, "owner_name": "Robert Gulyas", "owner_url": "http://www.panoramio.com/user/67714"}
,
{"photo_id": 680320, "photo_title": "A severe storm approaches Nyngan, NSW  www.ozthunder.com", "photo_url": "http://www.panoramio.com/photo/680320", "photo_file_url": "http://mw2.google.com/mw-panoramio/photos/medium/680320.jpg", "longitude": 147.154312, "latitude": -31.563910, "width": 500, "height": 378, "upload_date": "04 February 2007", "owner_id": 67208, "owner_name": "Michael Thompson", "owner_url": "http://www.panoramio.com/user/67208"}
,
{"photo_id": 6018, "photo_title": "Jadrija - barke", "photo_url": "http://www.panoramio.com/photo/6018", "photo_file_url": "http://mw2.google.com/mw-panoramio/photos/medium/6018.jpg", "longitude": 15.841599, "latitude": 43.725026, "width": 500, "height": 176, "upload_date": "18 December 2005", "owner_id": 991, "owner_name": "Mario Marotti", "owner_url": "http://www.panoramio.com/user/991"}
,
{"photo_id": 36485, "photo_title": "Great Belt Bridge", "photo_url": "http://www.panoramio.com/photo/36485", "photo_file_url": "http://mw2.google.com/mw-panoramio/photos/medium/36485.jpg", "longitude": 11.029501, "latitude": 55.342130, "width": 500, "height": 332, "upload_date": "02 August 2006", "owner_id": 5703, "owner_name": "dancer", "owner_url": "http://www.panoramio.com/user/5703"}
,
{"photo_id": 19098, "photo_title": "Jökulsárlón", "photo_url": "http://www.panoramio.com/photo/19098", "photo_file_url": "http://mw2.google.com/mw-panoramio/photos/medium/19098.jpg", "longitude": -16.355896, "latitude": 64.037351, "width": 500, "height": 333, "upload_date": "02 May 2006", "owner_id": 2885, "owner_name": "Luis Rodríguez Baena", "owner_url": "http://www.panoramio.com/user/2885"}
,
{"photo_id": 55458, "photo_title": "034 Troianisches Pferd", "photo_url": "http://www.panoramio.com/photo/55458", "photo_file_url": "http://mw2.google.com/mw-panoramio/photos/medium/55458.jpg", "longitude": 26.240464, "latitude": 39.957188, "width": 375, "height": 500, "upload_date": "01 October 2006", "owner_id": 7633, "owner_name": "Daniel Meyer", "owner_url": "http://www.panoramio.com/user/7633"}
,
{"photo_id": 1800357, "photo_title": "Beach & Evening Light - Garrapata State Park Big Sur, CA", "photo_url": "http://www.panoramio.com/photo/1800357", "photo_file_url": "http://mw2.google.com/mw-panoramio/photos/medium/1800357.jpg", "longitude": -121.925915, "latitude": 36.455437, "width": 500, "height": 345, "upload_date": "16 April 2007", "owner_id": 107613, "owner_name": "Tom Grubbe", "owner_url": "http://www.panoramio.com/user/107613"}
,
{"photo_id": 1447086, "photo_title": "Odyssey", "photo_url": "http://www.panoramio.com/photo/1447086", "photo_file_url": "http://mw2.google.com/mw-panoramio/photos/medium/1447086.jpg", "longitude": 15.923395, "latitude": 43.589530, "width": 500, "height": 323, "upload_date": "22 March 2007", "owner_id": 109117, "owner_name": "Busa Péter", "owner_url": "http://www.panoramio.com/user/109117"}
,
{"photo_id": 10378421, "photo_title": "Red Bus", "photo_url": "http://www.panoramio.com/photo/10378421", "photo_file_url": "http://mw2.google.com/mw-panoramio/photos/medium/10378421.jpg", "longitude": -0.124497, "latitude": 51.500809, "width": 414, "height": 500, "upload_date": "19 May 2008", "owner_id": 325031, "owner_name": "Gibrail", "owner_url": "http://www.panoramio.com/user/325031"}
,
{"photo_id": 1087672, "photo_title": "És azután menydörgést hallottunk...", "photo_url": "http://www.panoramio.com/photo/1087672", "photo_file_url": "http://mw2.google.com/mw-panoramio/photos/medium/1087672.jpg", "longitude": 15.917473, "latitude": 43.590836, "width": 500, "height": 299, "upload_date": "28 February 2007", "owner_id": 109117, "owner_name": "Busa Péter", "owner_url": "http://www.panoramio.com/user/109117"}
